     3.04           OBSERVATION DATA    M (MIXED)           RINEX VERSION / TYPE
START OF RINEX header check by ROB      20260311 095854 UTC COMMENT
 with respect to                                            COMMENT
 https://gnss-metadata.eu/v1/sitelog/exportlog?id=WTZZ00DEU COMMENT
RINEX file downloaded from BKG                              COMMENT
RINEX header corrections                                    COMMENT
 MARKER NAME   WTZZ                 -> WTZZ00DEU            COMMENT
 REC #         1ZAHJWR29YJ3L0QDSPVJ -> 02911                COMMENT
END OF RINEX header check by ROB                            COMMENT
MAKERINEX 2.0.46262 BKG/GOWETTZELL      2020-06-26 00:13    PGM / RUN BY / DATE
WTZZ00DEU                                                   MARKER NAME
14201M014                                                   MARKER NUMBER
AUTOMATIC           BKG/GOWETTZELL                          OBSERVER / AGENCY
02911               JAVAD TRE_3 DELTA   3.7.9 DEC,30,2019   REC # / TYPE / VERS
10240011            LEIAR25.R3      LEIT                    ANT # / TYPE
  4075578.4000   931852.7500  4801569.9800                  APPROX POSITION XYZ
         .2840         .0000         .0000                  ANTENNA: DELTA H/E/N
G   24 C1C C1W C1X C2W C2X C5X L1C L1W L1X L2W L2X L5X D1C  SYS / # / OBS TYPES
       D1W D1X D2W D2X D5X S1C S1W S1X S2W S2X S5X          SYS / # / OBS TYPES
R   20 C1C C1P C2C C2P C3X L1C L1P L2C L2P L3X D1C D1P D2C  SYS / # / OBS TYPES
       D2P D3X S1C S1P S2C S2P S3X                          SYS / # / OBS TYPES
E   20 C1X C5X C6X C7X C8X L1X L5X L6X L7X L8X D1X D5X D6X  SYS / # / OBS TYPES
       D7X D8X S1X S5X S6X S7X S8X                          SYS / # / OBS TYPES
S    8 C1C C5I L1C L5I D1C D5I S1C S5I                      SYS / # / OBS TYPES
C   28 C1X C2I C5X C6I C7I C7Z C8X L1X L2I L5X L6I L7I L7Z  SYS / # / OBS TYPES
       L8X D1X D2I D5X D6I D7I D7Z D8X S1X S2I S5X S6I S7I  SYS / # / OBS TYPES
       S7Z S8X                                              SYS / # / OBS TYPES
I    4 C5A L5A D5A S5A                                      SYS / # / OBS TYPES
G L1C   .00000                                              SYS / PHASE SHIFT
G L1W  -.25000                                              SYS / PHASE SHIFT
G L1X  -.25000                                              SYS / PHASE SHIFT
G L2W   .00000                                              SYS / PHASE SHIFT
G L2X   .25000                                              SYS / PHASE SHIFT
G L5X   .25000                                              SYS / PHASE SHIFT
R L1C   .00000                                              SYS / PHASE SHIFT
R L1P  -.25000                                              SYS / PHASE SHIFT
R L2C   .25000                                              SYS / PHASE SHIFT
R L2P   .00000                                              SYS / PHASE SHIFT
R L3X   .25000                                              SYS / PHASE SHIFT
E L1X   .50000                                              SYS / PHASE SHIFT
E L5X   .25000                                              SYS / PHASE SHIFT
E L6X   .50000                                              SYS / PHASE SHIFT
E L7X   .25000                                              SYS / PHASE SHIFT
E L8X   .25000                                              SYS / PHASE SHIFT
S L1C   .00000                                              SYS / PHASE SHIFT
S L5I   .25000                                              SYS / PHASE SHIFT
C L1X   .00000                                              SYS / PHASE SHIFT
C L2I   .00000                                              SYS / PHASE SHIFT
C L5X   .25000                                              SYS / PHASE SHIFT
C L6I   .00000                                              SYS / PHASE SHIFT
C L7I   .00000                                              SYS / PHASE SHIFT
C L7Z   .25000                                              SYS / PHASE SHIFT
C L8X   .25000                                              SYS / PHASE SHIFT
I L5A   .00000                                              SYS / PHASE SHIFT
                                                            GLONASS COD/PHS/BIS
 24 R01  1 R02 -4 R03  5 R04  6 R05  1 R06 -4 R07  5 R08  6 GLONASS SLOT / FRQ #
    R09 -2 R10 -7 R11  0 R12 -1 R13 -2 R14 -7 R15  0 R16 -1 GLONASS SLOT / FRQ #
    R17  4 R18 -3 R19  3 R20  2 R21  4 R23  3 R24  2 R26 -6 GLONASS SLOT / FRQ #
    30.000                                                  INTERVAL
  2020     6    25     0     0    0.0000000     GPS         TIME OF FIRST OBS
  2020     6    25     0    19   30.0000000     GPS         TIME OF LAST OBS
    18                                                      LEAP SECONDS
     0                                                      RCV CLOCK OFFS APPL
                                                            END OF HEADER
> 2020  6 25  0  0  0.0000000  0 52
S44  40948493.764                   215185837.448 6                        93.456                          41.250
C23  23480997.465    23480999.229    23480991.525    23480988.194                    23480990.871    23480990.741   123393431.324 8 122271742.560 8  92144508.074 9  99355813.971 8                  94548268.941 9  93346382.405 9     -2182.444       -2162.634       -1629.749       -1757.339                       -1672.265       -1651.016          51.000          51.750          54.000          52.000                          54.250          56.750
R10  20362708.189    20362706.735                                                   108544802.772 8 108544706.784 8                                                     -2609.210       -2609.210                                                          52.250          51.000
C40  38261884.443    38261886.498    38261882.620    38261882.257                    38261882.405    38261882.065   201067678.896 7 199239690.071 8 150147889.426 8 161898574.575 8                 154064792.282 8 152106352.748 8      -290.693        -287.900        -217.002        -234.000                        -222.641        -219.833          47.500          48.750          50.250          48.500                          50.750          53.250
R17  23949726.322    23949726.546    23949727.030    23949727.106                   128159650.873 8 128159781.863 7  99679868.670 6  99679865.660 6                     -2860.130       -2860.130       -2224.540       -2224.536                          49.000          47.750          41.500          40.000
S36  38389593.798    38389597.138   201740001.239 7 150648973.485 8        -1.084           -.716          47.250          48.750
E04  28488078.261    28488078.220    28488077.945    28488077.296    28488077.166   149705914.317 6 111793392.722 7 121514547.874 6 114709742.170 7 113251566.585 7     -2708.151       -2022.343       -2198.185       -2075.099       -2048.706          41.750          43.500          41.000          45.000          47.250
E31  24366150.473    24366151.567    24366148.348    24366150.643    24366150.422   128045212.088 8  95618042.530 9 103932651.037 8  98112423.961 9  96865234.885 9      -559.147        -417.526        -453.844        -428.425        -422.979          51.750          54.000          51.500          55.250          57.500
E15  27439364.462    27439366.252    27439363.409    27439364.966    27439364.946   144194867.915 7 107677965.197 7 117041266.952 7 110486956.111 7 109082460.288 8      -980.904        -732.519        -796.193        -751.605        -742.062          44.250          44.500          42.000          46.000          48.000
S27  39499976.789                   207573748.243 6                         -.933                          38.750
G13  21925231.166    21925230.613                    21925228.667                                   115217905.184 8 115217896.191 6                  89780186.369 6                                      2541.717        2541.717                        1980.547                                          49.500          38.750                          38.750
G15  24448735.428    24448735.472                    24448732.671    24448733.088                   128478825.93817 128478977.949 4                 100113491.005 4 100113492.00516                      3488.658        3488.658                        2718.363        2718.361                          42.000          29.000                          29.000          40.000
G28  22651619.556    22651618.978                    22651617.008                                   119035086.689 7 119035071.701 5                  92754602.791 5                                      3002.791        3002.791                        2339.866                                          45.500          34.500                          34.500
G18  24786468.728    24786469.040    24786468.628    24786468.009    24786467.397    24786470.371   130253778.485 7 130253772.465 4 130253820.465 7 101496447.339 4 101496444.335 7  97267424.386 7      1295.648        1295.648        1295.712        1009.632        1009.625         967.567          43.000          27.250          43.750          27.250          43.500          46.000
R12  23112328.598    23112328.860    23112330.603    23112330.078                   123461919.079 8 123461927.075 8  96025936.801 7  96025951.804 7                      4312.703        4312.703        3354.328        3354.331                          50.000          49.250          43.000          42.250
C19  24265920.098    24265923.109    24265919.581    24265915.336                    24265919.105    24265918.824   127518275.618 7 126359125.678 8  95224722.023 8 102677063.940 8                  97708834.629 8  96466798.219 8      2777.922        2752.624        2074.428        2236.698                        2128.494        2101.469          47.250          49.000          49.750          48.000                          50.250          53.000
C32  23806175.467    23806176.470    23806178.311    23806175.428                    23806177.657    23806177.467   125102283.167 8 123965214.691 8  93420612.070 8 100731781.378 8                  95857659.575 8  94639128.220 9     -2741.969       -2717.093       -2047.631       -2207.890                       -2101.046       -2074.355          50.250          50.750          52.750          50.250                          53.000          55.750
E24  22995787.199    22995798.775    22995779.030    22995797.635    22995797.486   120843675.754 8  90240420.772 8  98087412.459 8  92594517.052 9  91417468.051 9      2254.126        1683.264        1829.640        1727.174        1705.218          50.750          53.250          51.250          54.750          56.750
R11  19720204.851    19720205.475    19720205.631    19720206.043                   105378820.191 9 105378839.196 8  81961303.781 8  81961305.784 8                      2001.003        2001.003        1556.340        1556.345                          54.250          53.500          49.000          49.000
C37  22063378.800    22063379.827    22063382.031    22063380.330                    22063381.652    22063381.368   115943873.867 8 114889809.091 8  86581483.089 9  93357402.910 8                  88840121.128 9  87710794.502 9       860.216         852.392         642.387         692.642                         659.158         650.777          50.250          51.250          56.500          53.750                          56.750          59.500
C20  22020222.648    22020224.981    22020218.773    22020214.447                    22020218.359    22020218.103   115717087.933 8 114665131.828 8  86412122.413 9  93174778.946 8                  88666355.788 9  87539256.494 9       179.019         177.405         133.676         144.167                         137.185         135.446          51.000          52.000          56.000          53.250                          56.750          59.000
R19  24530467.289    24530464.526    24530466.564    24530466.074                   131221457.165 6 131221453.167 6 102061128.467 6 102061123.469 6                      2674.299        2674.299        2080.004        2079.998                          38.250          37.500          38.250          37.000
R01  19195433.850    19195433.913    19195434.827    19195435.808                   102610596.545 8 102610631.555 8  79808284.456 7  79808285.469 7                       218.119         218.119         169.628         169.622                          50.250          49.750          44.750          44.000
G09  24000343.980    24000344.140                    24000344.631    24000344.827    24000343.638   126122713.816 7 126122704.820 7                  98277444.934 7  98277446.935 7  94182556.352 8     -3188.193       -3188.193                       -2484.316       -2484.310       -2380.805          44.500          42.750                          42.750          44.000          49.500
G27  25111277.178    25111278.868                    25111279.081    25111278.302    25111276.814   131960664.592 6 131960663.603 5                 102826492.162 5 102826495.170 6  98542055.942 7       102.915         102.915                          80.324          80.286          76.958          40.750          33.750                          33.750          40.500          45.250
G05  20796901.256    20796901.133                    20796898.522    20796898.590                   109288487.431 8 109288486.429 8                  85159866.572 8  85159862.577 8                      -485.005        -485.005                        -377.947        -377.940                          50.000          51.000                          51.000          50.500
G30  20424563.054    20424562.820                    20424563.782    20424563.600    20424561.847   107331843.407 8 107331839.410 8                  83635209.116 8  83635217.117 8  80150411.413 9      -136.703        -136.703                        -106.540        -106.535        -102.098          51.000          52.500                          52.500          52.750          58.000
R02  22497304.295    22497304.574    22497304.836    22497304.128                   120049957.41618 120049951.411 8  93372214.203 7  93372179.206 7                      3831.763        3831.763        2980.294        2980.310                          51.750          51.250          44.750          43.500
E09  22301210.167    22301210.253    22301209.081    22301208.835    22301208.803   117193708.358 8  87514793.979 9  95124768.749 8  89797785.644 9  88656282.450 9     -1468.736       -1096.788       -1192.153       -1125.400       -1111.092          52.750          54.500          52.250          55.500          58.000
G08  24970537.341    24970536.947                    24970538.362    24970538.902    24970536.233   131221066.889 6 131221067.888 5                 102250184.005 5 102250182.995 6  97989757.256 7      1534.890        1534.890                        1195.990        1195.988        1146.177          38.250          35.250                          35.250          39.750          44.750
C12                  26871317.832                    26871314.010    26871314.828                                                   139925840.907 4                 113701291.282 4 108199649.542 5                                                       397.479                         324.332         307.753                                                          29.250                          28.250          32.500
S25  39870920.720                   209522187.314 7                      -201.849                          45.000
E05  23809512.654    23809513.252    23809510.535    23809511.953    23809511.894   125119844.143 8  93433692.985 9 101558357.434 8  95871090.874 9  94652392.565 9      1074.561         802.440         872.217         823.371         812.910          52.250          55.250          52.250          56.000          58.500
S26  40230924.664                   211414995.130 6                        66.841                          39.500
R08  20755563.273    20755562.482    20755563.214    20755563.388                   111145229.714 8 111145142.713 8  86446234.257 8  86446265.252 8                     -2816.674       -2816.674       -2190.750       -2190.746                          52.250          51.500          49.250          48.250
R18  23481735.287    23481735.868    23481737.157    23481735.666                   125347108.010 8 125347092.015 7  97492192.409 6  97492179.390 6                      -143.517        -143.517        -111.618        -111.601                          48.750          47.750          41.500          40.000
C10                  38256014.675                    38256009.005    38256010.747                                                   199209116.482 7                 161873773.517 7 154041159.800 7                                                        96.499                          78.441          74.601                                                          45.000                          46.000          46.500
S23  38593458.833    38593459.153   202810496.322 7 151448887.798 7         3.218           2.384          46.250          47.500
E03  27506102.068    27506102.570    27506100.341    27506101.567    27506101.484   144545564.51517 107939876.70517 117325947.74817 110755693.50617 109347779.73918      2638.584        1970.369        2141.708        2021.763        1996.070          46.000          45.000          43.250          47.000          49.000
E25  28635429.473    28635430.736    28635428.516    28635429.566    28635429.370   150480201.984 6 112371582.282 6 122143022.498 5 115303015.360 5 113837301.460 6      3265.307        2438.463        2650.453        2502.012        2470.232          40.000          38.750          34.500          34.250          41.000
C07                  39680320.302                    39680311.923    39680313.717                                                   206625757.789 7                 167900440.501 7 159776229.935 7                                                      -567.276                        -460.866        -438.550                                                          43.250                          42.500          43.500
G07  21697283.687    21697283.630                    21697281.268    21697281.249                   114020037.177 8 114020042.179 8                  88846798.885 8  88846795.886 8                     -1922.847       -1922.847                       -1498.316       -1498.322                          50.000          50.750                          50.750          48.750
C05                  39982984.913                    39982982.352    39982980.062                                                   208201912.382 6                 169181096.057 7 160994899.381 7                                                        -2.291                          -1.859          -1.726                                                          41.500                          42.250          43.500
S28  41262466.434    41262472.847   216835788.711 6 161922791.710 6         1.282           0.954          38.500          40.250
E01  27894203.499    27894203.723    27894203.371    27894202.478    27894202.290   146585155.590 7 109462883.004 7 118981392.808 7 112318436.999 7 110890657.138 7     -2746.765       -2051.187       -2229.558       -2104.685       -2077.928          46.250          44.000          42.250          45.250          47.250
R09  23380506.447    23380506.177    23380506.382    23380505.799    23380492.269   124850867.253 8 124850684.259 7  97106225.728 7  97106097.730 7  93744773.629 7     -4139.249       -4139.249       -3219.396       -3219.428       -3107.974          48.000          47.250          43.250          42.000          44.750
I04  41209152.987   161713563.89316      -328.204          37.500
I09  41063524.654   161142131.389 5      -642.980          34.250
I03  41441676.385   162626076.567 7       -45.738          42.250
I02  37518126.565   147229245.789 7       341.175          42.250
I06  38313473.351   150350158.519 6        27.027          41.750
C02                                                                                                                                                                                                                                                                                                         0.951                                                                                                          31.250
> 2020  6 25  0  0 30.0000000  0 52
S44  40947961.076                   215183036.766 6                        93.010                          40.000
C23  23493484.840    23493487.107    23493479.039    23493475.652                    23493478.218    23493478.174   123459053.423 8 122336768.092 8  92193511.591 9  99408652.546 8                  94598550.809 9  93396025.098 9     -2192.361       -2172.441       -1637.148       -1765.294                       -1679.856       -1658.517          50.500          51.500          54.000          52.000                          54.250          56.500
R10  20377441.485    20377442.183                                                   108623351.137 8 108623255.159 8                                                     -2627.400       -2627.400                                                          51.250          50.750
C40  38263558.559    38263561.112    38263557.277    38263556.689                    38263556.891    38263556.675   201076478.786 7 199248409.981 8 150154460.792 8 161905660.210 8                 154071535.072 8 152113009.827 8      -296.119        -293.419        -221.123        -238.382                        -226.847        -224.003          47.250          48.500          50.000          48.500                          50.750          53.000
R17  23965802.930    23965803.795    23965803.753    23965805.027                   128245687.755 7 128245818.750 7  99746786.245 6  99746783.246 6                     -2875.721       -2875.721       -2236.675       -2236.702                          47.000          45.750          40.500          39.500
S36  38389599.170    38389601.931   201740028.903 7 150648989.441 8         -.854           -.659          46.000          49.000
E04  28503544.300    28503544.931    28503543.800    28503543.864    28503543.749   149787192.217 7 111854087.303 7 121580520.231 6 114772020.071 7 113313052.824 7     -2710.413       -2024.074       -2200.073       -2076.865       -2050.469          42.750          43.500          40.500          44.500          46.750
E31  24369382.183    24369383.318    24369380.135    24369382.214    24369382.130   128062194.779 8  95630724.413 8 103946435.691 8  98125436.677 9  96878082.182 9      -573.057        -427.941        -465.158        -439.111        -433.521          52.000          53.750          51.500          55.250          57.250
E15  27445002.702    27445004.787    27445002.154    27445003.561    27445003.496   144224498.481 7 107700091.921 7 117065317.752 6 110509660.072 7 109104875.639 8      -994.594        -742.721        -807.325        -762.124        -752.427          44.750          44.000          41.750          46.000          48.000
S27  39499981.659                   207573782.038 6                        -1.108                          37.500
G13  21910742.116    21910741.235                    21910739.386                                   115141762.283 8 115141753.291 6                  89720854.247 6                                      2534.464        2534.464                        1974.888                                          49.500          38.250                          38.250
G15  24428826.350    24428826.288                    24428824.307    24428824.509                   128374200.502 7 128374352.484 5                 100031964.724 5 100031965.721 6                      3486.286        3486.286                        2716.607        2716.587                          42.750          30.500                          30.500          40.750
G28  22634505.063    22634505.078                    22634502.174                                   118945148.315 7 118945133.316 6                  92684520.954 6                                      2993.048        2993.048                        2332.264                                          47.000          36.000                          36.000
G18  24779122.998    24779122.789    24779122.519    24779121.075    24779122.166    24779124.418   130215174.436 7 130215168.427 4 130215216.422 7 101466366.285 4 101466363.279 7  97238596.716 7      1277.954        1277.954        1277.926         995.863         995.840         954.339          42.250          26.500          43.500          26.500          42.500          45.500
R12  23088127.040    23088126.740    23088129.059    23088127.312                   123332635.715 8 123332643.719 8  95925383.107 7  95925398.110 6                      4306.235        4306.235        3349.289        3349.262                          50.000          49.250          42.250          41.250
C19  24250080.668    24250083.241    24250079.719    24250075.649                    24250079.220    24250078.991   127435036.675 7 126276643.471 7  95162563.091 8 102610040.391 8                  97645054.161 8  96403828.521 8      2771.364        2746.144        2069.523        2231.479                        2123.493        2096.515          47.250          47.750          50.000          48.500                          50.250          52.750
C32  23821854.956    23821856.678    23821857.761    23821855.007                    23821857.029    23821856.925   125184679.346 8 124046861.802 8  93482141.673 8 100798126.348 8                  95920794.296 8  94701460.379 9     -2751.017       -2726.059       -2054.376       -2215.171                       -2107.981       -2081.174          50.000          51.750          52.250          50.750                          52.750          55.250
E24  22982948.737    22982960.362    22982940.701    22982959.077    22982958.964   120776208.680 8  90190039.530 8  98032650.236 8  92542821.516 9  91366429.660 9      2243.627        1675.456        1821.149        1719.161        1697.311          51.500          53.500          51.000          54.750          57.000
R11  19709034.439    19709034.014    19709034.579    19709034.257                   105319123.318 9 105319142.318 8  81914872.886 8  81914874.894 8                      1978.772        1978.772        1539.057        1539.037                          54.250          53.500          49.000          49.000
C37  22058509.629    22058511.085    22058512.804    22058511.197                    22058512.439    22058512.200   115918286.194 8 114864454.027 8  86562375.426 9  93336799.859 8                  88820515.002 9  87691437.607 9       845.644         837.956         631.476         680.884                         647.944         639.716          51.500          51.750          56.250          53.750                          56.750          59.250
C20  22019243.224    22019245.224    22019239.040    22019234.808                    22019238.632    22019238.483   115711939.902 8 114660030.594 8  86408278.102 9  93170633.783 8                  88662411.197 9  87535362.043 9       164.177         162.646         122.617         132.160                         125.779         124.206          51.000          52.000          55.750          53.500                          56.750          59.250
R19  24515517.884    24515517.088    24515518.299    24515517.987                   131141494.484 6 131141490.500 6 101998935.301 6 101998930.306 6                      2656.443        2656.443        2066.171        2066.213                          38.750          38.750          38.750          37.750
R01  19194268.678    19194268.859    19194271.032    19194270.671                   102604369.214 8 102604404.215 8  79803440.968 7  79803441.978 7                       197.136         197.136         153.300         153.317                          50.500          49.250          45.250          44.000
G09  24018556.932    24018557.458                    24018558.215    24018557.813    24018556.926   126218425.679 7 126218416.679 7                  98352025.589 7  98352027.587 7  94254029.475 8     -3192.590       -3192.590                       -2487.775       -2487.775       -2384.134          43.250          42.750                          42.750          44.250          49.000
G27  25110746.809    25110746.278                    25110746.077    25110745.768    25110744.263   131957867.092 6 131957866.088 5                 102824312.289 5 102824315.280 6  98539966.893 7        83.729          83.729                          65.224          65.206          62.503          41.250          33.500                          33.500          39.500          45.500
G05  20799727.186    20799727.281                    20799724.700    20799724.589                   109303338.763 8 109303337.773 8                  85171439.047 8  85171435.055 8                      -505.089        -505.089                        -393.566        -393.565                          49.750          50.750                          50.750          50.750
G30  20425386.672    20425386.096                    20425386.912    20425387.008    20425385.039   107336169.398 8 107336165.402 8                  83638580.023 8  83638588.022 8  80153641.865 9      -151.730        -151.730                        -118.202        -118.205        -113.277          51.250          52.250                          52.250          52.750          58.000
R02  22475770.993    22475771.624    22475771.953    22475772.827                   119935059.623 8 119935053.617 8  93282849.288 7  93282814.291 7                      3828.052        3828.052        2977.366        2977.361                          49.750          49.500          45.750          44.500
E09  22309617.802    22309618.104    22309617.133    22309616.711    22309616.680   117237891.969 8  87547788.227 9  95160632.067 8  89831640.617 9  88689707.061 9     -1476.847       -1102.847       -1198.751       -1131.627       -1117.235          53.000          54.500          52.500          55.250          58.000
G08  24961818.960    24961818.115                    24961820.111    24961820.182    24961817.563   131175248.105 6 131175249.086 6                 102214481.102 6 102214480.102 6  97955541.976 7      1519.654        1519.654                        1184.236        1184.261        1134.889          38.000          36.750                          36.750          41.000          46.250
C12                  26869072.873                    26869068.507                                                                   139914145.521 4                 113691788.621 4                                                                       381.604                         310.292                                                                          27.250                          25.750
S25  39872095.827                   209528232.471 7                      -201.596                          45.250
E05  23803400.392    23803400.806    23803398.000    23803399.536    23803399.476   125087723.103 8  93409706.497 9 101532285.167 8  95846478.654 9  94628093.210 9      1066.817         796.650         865.919         817.427         807.045          52.500          55.250          52.250          56.000          58.500
S26  40230541.116                   211412976.939 6                        67.518                          39.500
R08  20771384.971    20771385.083    20771385.774    20771386.086                   111229959.289 8 111229872.303 8  86512135.040 8  86512166.036 8                     -2831.905       -2831.905       -2202.609       -2202.605                          51.750          51.250          49.750          48.500
R18  23482613.681    23482614.311    23482615.051    23482615.748                   125351800.249 7 125351784.251 7  97495841.932 7  97495828.922 6                      -169.347        -169.347        -131.679        -131.681                          47.750          47.500          42.250          41.250
C10                  38255471.050                    38255466.187    38255467.791                                                   199206290.150 7                 161871476.901 7 154038974.311 7                                                        91.905                          74.630          71.046                                                          44.250                          45.750          46.500
S23  38593439.871    38593440.454   202810397.556 7 151448813.949 7         3.262           2.435          46.750          47.750
E03  27491041.134    27491042.047    27491039.491    27491040.649    27491040.548   144466419.569 7 107880774.991 7 117261706.745 7 110695050.000 7 109287907.129 8      2637.751        1969.699        2140.973        2021.082        1995.397          46.750          45.750          43.000          46.750          49.250
E25  28616788.559    28616790.045    28616786.619    28616788.026    28616788.285   150382241.654 6 112298430.159 6 122063509.255 6 115227954.886 5 113763195.138 6      3265.321        2438.319        2650.395        2501.920        2470.127          41.750          38.750          36.500          35.000          41.000
C07                  39683598.746                    39683590.102    39683591.188                                                   206642826.187 7                 167914309.988 7 159789428.307 7                                                      -570.720                        -463.815        -441.342                                                          44.000                          42.500          43.750
G07  21708288.415    21708288.538                    21708286.094    21708285.784                   114077868.152 8 114077873.154 8                  88891861.978 8  88891858.981 8                     -1932.610       -1932.610                       -1505.938       -1505.936                          49.500          50.500                          50.500          48.750
C05                  39982997.954                    39982994.581    39982993.613                                                   208201977.314 6                 169181148.818 7 160994949.580 7                                                        -2.116                          -1.706          -1.604                                                          41.000                          42.000          43.750
S28  41262460.230    41262466.042   216835750.776 6 161922763.717 6         1.541           1.103          39.500          40.750
E01  27909900.484    27909899.520    27909899.445    27909898.823    27909898.571   146667640.002 7 109524478.499 7 119048344.415 7 112381639.327 7 110953056.054 7     -2752.300       -2055.336       -2234.010       -2108.931       -2082.120          46.000          43.500          42.500          45.250          47.250
R09  23403773.071    23403772.492    23403772.434    23403772.149    23403759.263   124975110.751 7 124974927.754 7  97202859.530 6  97202731.544 6  93838062.464 7     -4143.788       -4143.788       -3222.898       -3222.947       -3111.402          47.500          47.500          41.000          41.000          44.500
I04  41211666.447   161723426.330 6      -329.344          37.250
I09  41068437.023   161161410.881 5      -641.975          35.000
I03  41442025.162   162627444.627 7       -45.643          42.750
I02  37515523.352   147219034.359 7       339.698          42.500
I06  38313265.769   150349347.677 7        26.982          42.000
C02                                                                                                                                                                                                                                                                                                         1.652                                                                                                          31.000
> 2020  6 25  0  1  0.0000000  0 53
E13  28595849.164                    28595848.214    28595846.960                   150272223.47614                 121974185.318 4 115143634.362 4                      1256.019                        1019.620         962.559                          26.500                          29.250          24.250
S44  40947429.161                   215180238.968 6                        93.262                          40.000
C23  23506028.798    23506030.928    23506022.988    23506019.700                    23506022.239    23506022.177   123524972.398 8 122402087.814 8  92242736.806 8  99461730.171 8                  94649060.161 9  93445892.381 9     -2202.208       -2182.211       -1644.521       -1773.221                       -1687.415       -1665.982          50.500          51.500          53.750          51.750                          54.000          56.500
R10  20392279.733    20392279.312                                                   108702443.022 8 108702347.033 8                                                     -2645.416       -2645.416                                                          51.500          50.500
C40  38265265.075    38265266.750    38265263.355    38265262.630                    38265262.990    38265262.705   201085444.003 7 199257293.687 8 150161155.598 8 161912878.963 8                 154078404.525 8 152119791.951 8      -301.661        -298.895        -225.259        -242.850                        -231.110        -228.169          47.000          48.750          50.000          48.750                          50.500          53.250
R17  23981968.851    23981969.374    23981970.250    23981970.007                   128332190.387 7 128332321.394 7  99814066.063 6  99814063.063 6                     -2891.089       -2891.089       -2248.652       -2248.664                          45.500          45.250          39.500          38.500
S36  38389603.627    38389606.946   201740054.407 7 150649009.002 8         -.705           -.535          46.750          49.000
E04  28519023.160    28519023.714    28519022.916    28519022.346    28519022.324   149868532.696 7 111914828.565 7 121646543.339 6 114834345.898 7 113374586.368 7     -2712.465       -2025.493       -2201.597       -2078.322       -2051.898          43.000          44.250          41.750          45.250          47.500
E31  24372693.612    24372694.413    24372691.246    24372693.543    24372693.278   128079594.956 8  95643718.058 8 103960559.211 8  98138769.283 9  96891245.309 9      -587.012        -438.368        -476.477        -449.809        -444.089          52.250          53.500          51.500          55.250          57.250
E15  27450719.460    27450721.186    27450719.428    27450720.213    27450720.125   144254540.100 7 107722525.610 7 117089702.185 7 110532678.974 7 109127601.933 8     -1008.203        -752.844        -818.307        -772.472        -762.654          44.750          44.000          43.000          46.250          48.000
S27  39499987.128                   207573816.892 6                        -1.499                          38.750
G13  21896294.101    21896293.931                    21896291.830                                   115065839.526 8 115065830.530 6                  89661693.668 6                                      2527.086        2527.086                        1969.169                                          49.750          38.750                          38.750
G15  24408928.421    24408928.483                    24408926.474    24408926.311                   128269640.447 6 128269792.446 4                  99950489.361 4  99950490.365 6                      3484.401        3484.401                        2715.085        2715.131                          41.250          29.500                          29.500          40.000
G28  22617445.763    22617444.975                    22617443.213                                   118855502.405 7 118855487.414 5                  92614666.983 5                                      2983.251        2983.251                        2324.659                                          46.500          35.000                          35.000
G18  24771877.274    24771877.833    24771877.799    24771876.705    24771876.423    24771879.330   130177102.529 7 130177096.546 4 130177144.526 7 101436699.887 4 101436696.910 7  97210166.446 7      1260.098        1260.098        1260.194         981.950         981.896         940.981          42.250          28.250          43.250          28.250          42.250          45.500
R12  23063960.949    23063961.121    23063962.036    23063962.819                   123203548.486 8 123203556.479 8  95824981.992 7  95824996.993 7                      4299.628        4299.628        3344.143        3344.145                          49.250          48.750          43.500          42.750
C19  24234278.463    24234281.011    24234277.568    24234273.443                    24234277.039    24234276.823   127351995.510 8 126194357.223 8  95100551.846 8 102543176.090 8                  97581425.231 8  96341008.431 8      2764.726        2739.518        2064.577        2226.154                        2118.404        2091.498          48.000          48.250          49.750          48.250                          50.250          52.750
C32  23837586.182    23837586.593    23837588.726    23837586.244                    23837588.159    23837587.986   125267346.637 8 124128777.588 8  93543873.735 8 100864689.614 8                  95984136.760 8  94763997.645 9     -2760.074       -2734.970       -2061.114       -2222.447                       -2114.882       -2088.003          51.250          49.500          52.250          51.000                          53.000          55.500
E24  22970170.207    22970181.577    22970162.035    22970180.300    22970180.169   120709055.813 8  90139892.915 8  97978143.047 8  92491366.730 9  91315628.960 9      2233.158        1667.625        1812.630        1711.122        1689.377          50.750          53.500          51.500          54.750          57.000
R11  19697987.345    19697987.688    19697988.021    19697987.929                   105260094.203 9 105260113.208 8  81868961.383 8  81868963.383 8                      1956.540        1956.540        1521.728        1521.745                          54.750          53.500          49.000          48.750
C37  22053724.042    22053725.209    22053727.133    22053725.577                    22053726.821    22053726.534   115893137.418 8 114839533.891 8  86543595.502 9  93316550.198 8                  88801245.166 9  87672412.728 9       831.007         823.416         620.559         669.110                         636.733         628.646          51.500          51.500          56.000          53.750                          57.000          59.250
C20  22018348.241    22018350.749    22018344.354    22018340.104                    22018343.960    22018343.734   115707238.150 8 114655371.584 8  86404767.054 9  93166847.951 8                  88658808.555 9  87531805.198 9       149.286         147.941         111.487         120.225                         114.384         112.946          51.000          52.250          56.000          53.250                          56.750          59.000
R19  24500671.360    24500670.960    24500670.367    24500670.008                   131062071.620 6 131062067.627 6 101937161.993 6 101937157.004 6                      2638.460        2638.460        2052.148        2052.123                          39.000          38.750          38.500          37.000
R01  19193222.391    19193222.114    19193223.588    19193223.692                   102598771.339 8 102598806.346 8  79799087.073 7  79799088.079 7                       176.096         176.096         136.929         136.944                          50.250          49.750          45.000          43.500
G09  24036796.207    24036795.673                    24036796.382    24036795.960    24036795.199   126314268.385 7 126314259.383 7                  98426708.196 7  98426710.194 7  94325600.304 8     -3196.917       -3196.917                       -2491.135       -2491.131       -2387.345          43.750          42.000                          42.000          44.000          49.000
G27  25110324.358    25110323.864                    25110324.361    25110324.276    25110322.855   131955650.567 6 131955649.592 5                 102822585.116 5 102822588.113 6  98538311.699 7        64.197          64.197                          49.996          49.976          47.900          39.500          32.500                          32.500          39.500          45.000
G05  20802667.671    20802667.698                    20802665.160    20802664.942                   109318790.868 8 109318789.875 8                  85183479.643 8  85183475.651 8                      -525.128        -525.128                        -409.249        -409.254                          49.750          50.750                          50.750          50.250
G30  20426295.688    20426295.142                    20426296.062    20426296.009    20426294.061   107340946.699 8 107340942.697 8                  83642302.597 8  83642310.596 8  80157209.331 9      -166.729        -166.729                        -129.911        -129.913        -124.501          52.000          52.250                          52.250          52.750          58.000
R02  22454262.067    22454262.162    22454262.012    22454262.342                   119820276.959 8 119820270.957 8  93193573.923 7  93193538.926 7                      3824.178        3824.178        2974.356        2974.347                          51.500          50.750          44.500          43.750
E09  22318071.975    22318072.158    22318071.089    22318070.850    22318070.767   117282318.368 8  87580963.779 9  95196692.452 8  89865681.616 9  88723315.336 9     -1484.898       -1108.862       -1205.284       -1137.783       -1123.323          52.750          54.500          52.500          55.250          57.750
G08  24953184.824    24953184.599                    24953185.993    24953186.719    24953183.611   131129880.406 6 131129881.417 5                 102179129.690 5 102179128.694 6  97921663.559 7      1504.687        1504.687                        1172.537        1172.537        1123.681          38.250          32.500                          32.500          39.750          45.000
S25  39873270.483                   209534284.503 7                      -201.505                          45.500
E05  23797332.117    23797332.664    23797329.754    23797331.364    23797331.310   125055834.684 8  93385893.716 9 101506401.705 8  95822044.668 9  94603969.827 9      1059.087         790.886         859.658         811.515         801.206          52.000          55.000          52.250          56.000          58.500
S26  40230155.306                   211410953.170 6                        67.607                          37.750
R08  20787293.752    20787293.555    20787294.264    20787294.159                   111315146.720 8 111315059.731 8  86578391.919 8  86578422.917 8                     -2847.212       -2847.212       -2214.506       -2214.501                          51.750          51.250          49.250          48.500
R18  23483640.327    23483639.419    23483639.013    23483640.172                   125357269.287 8 125357253.293 7  97500095.644 6  97500082.638 6                      -195.229        -195.229        -151.840        -151.822                          48.750          47.750          41.750          41.750
C10                  38254954.085                    38254949.677    38254951.235                                                   199203600.658 7                 161869291.479 7 154036894.617 7                                                        87.431                          70.952          67.543                                                          44.250                          46.000          46.750
S23  38593420.015    38593421.430   202810299.391 7 151448741.021 7         3.294           2.457          47.250          47.500
E03  27475985.230    27475985.699    27475983.043    27475984.470    27475984.437   144387299.589 7 107821691.918 7 117197485.997 7 110634425.613 7 109228053.401 8      2636.939        1969.137        2140.364        2020.504        1994.823          46.000          45.500          42.250          46.250          48.750
E25  28598148.016    28598149.195    28598145.910    28598147.047    28598147.362   150284282.659 7 112225278.942 6 121983997.083 6 115152895.356 6 113689089.783 7      3265.227        2438.285        2650.354        2501.930        2470.124          43.000          39.750          38.500          41.000          42.500
C07                  39686897.654                    39686888.382    39686890.428                                                   206660002.758 7                 167928267.359 6 159802710.310 7                                                      -574.364                        -466.693        -444.156                                                          43.750                          41.500          43.750
G07  21719348.984    21719348.726                    21719346.345    21719346.112                   114135990.103 8 114135995.105 8                  88937151.805 8  88937148.811 8                     -1942.274       -1942.274                       -1513.459       -1513.466                          49.500          50.000                          50.000          48.750
C05                  39983010.183                    39983006.739    39983004.430                                                   208202039.258 6                 169181199.171 7 160994997.506 7                                                        -1.953                          -1.611          -1.593                                                          41.000                          42.000          43.750
S28  41262452.280    41262459.019   216835714.211 6 161922736.017 6         0.962           0.810          39.500          40.250
E01  27925627.445    27925627.423    27925627.208    27925626.150    27925626.099   146750288.729 7 109586196.669 7 119115429.401 6 112444967.541 7 111015579.246 7     -2757.590       -2059.255       -2238.301       -2112.960       -2086.109          45.250          43.500          41.750          44.500          47.000
R09  23427063.691    23427064.455    23427063.686    23427064.128    23427051.169   125099488.913 8 125099305.912 7  97299598.119 6  97299470.100 6  93931452.409 7     -4148.200       -4148.200       -3226.375       -3226.372       -3114.689          48.250          46.500          41.750          40.500          43.750
I09  41073346.601   161180676.825 5      -641.908          35.250
I03  41442372.298   162628811.150 7       -45.600          42.500
I02  37512933.546   147208869.230 7       338.066          42.250
I04  41214189.913   161733337.12816      -330.452          36.500
I06  38313061.091   150348540.177 6        26.841          41.750
C02                                                                                                                                                                                                                                                                                                         1.448                                                                                                          30.250
C12                                                                                                                                                                                                                                                                                                       282.408                                                                                                          28.250
> 2020  6 25  0  1 30.0000000  0 52
S44  40946897.522                   215177444.172 6                        93.120                          41.000
C23  23518629.051    23518630.943    23518622.965    23518619.800                    23518622.429    23518622.251   123591186.487 8 122467699.950 8  92292182.392 8  99515045.407 8                  94699795.625 9  93495982.905 9     -2212.030       -2191.973       -1651.861       -1781.123                       -1694.926       -1673.405          50.500          51.250          53.500          51.750                          54.250          56.500
R10  20407218.765    20407218.270                                                   108782074.864 8 108781978.874 8                                                     -2663.360       -2663.360                                                          52.000          51.000
C40  38267002.391    38267004.067    38267000.766    38267000.153                    38267000.358    38267000.119   201094574.123 7 199266340.811 8 150167973.556 8 161920230.499 8                 154085400.347 8 152126698.844 8      -307.160        -304.353        -229.303        -247.279                        -235.322        -232.323          47.250          48.750          49.750          48.750                          50.500          53.250
R17  23998219.454    23998220.144    23998222.233    23998220.917                   128419154.623 7 128419285.626 7  99881704.909 6  99881701.893 6                     -2906.471       -2906.471       -2260.669       -2260.603                          44.250          44.250          38.500          37.250
S36  38389608.526    38389611.838   201740075.009 7 150649033.369 7         -.519           -.505          46.750          45.000
E04  28534513.508    28534514.119    28534513.514    28534512.550    28534512.801   149949935.201 7 111975616.181 7 121712616.842 6 114896719.286 7 113436166.876 7     -2714.507       -2027.043       -2203.329       -2079.931       -2053.497          42.750          43.250          40.250          43.750          46.250
E31  24376083.828    24376084.873    24376081.341    24376083.937    24376083.708   128097411.801 8  95657022.848 8 103975020.943 8  98152421.155 9  96904723.637 9      -600.850        -448.686        -487.711        -460.392        -454.536          52.000          53.500          51.500          55.500          57.500
E15  27456513.986    27456516.204    27456513.893    27456515.086    27456514.873   144284991.718 7 107745265.481 7 117114419.439 7 110556012.063 7 109150638.413 8     -1021.873        -763.107        -829.478        -783.033        -773.077          44.250          44.250          43.000          46.250          48.500
S27  39499995.127                   207573851.572 6                        -1.230                          38.000
G13  21881888.746    21881888.248                    21881886.369                                   114990138.401 8 114990129.410 6                  89602705.790 6                                      2519.605        2519.605                        1963.359                                          49.750          38.750                          38.750
G15  24389044.928    24389043.828                    24389042.788    24389040.986                   128165147.132 7 128165299.121 4                  99869066.054 4  99869067.045 6                      3481.942        3481.942                        2713.296        2713.291                          42.000          29.250                          29.250          40.500
G28  22600443.053    22600442.297                    22600439.998                                   118766151.506 7 118766136.516 5                  92545042.923 5                                      2973.361        2973.361                        2316.926                                          45.750          34.250                          34.250
G18  24764734.742    24764734.243    24764735.099    24764733.867    24764734.036    24764735.531   130139564.012 7 130139558.015 4 130139606.028 7 101407449.140 4 101407446.121 7  97182134.452 7      1242.388        1242.388        1242.322         968.093         968.103         927.763          44.500          28.750          44.500          28.750          42.000          44.250
R12  23039833.390    23039832.955    23039834.592    23039833.736                   123074660.120 8 123074668.121 8  95724735.556 7  95724750.554 6                      4292.934        4292.934        3338.959        3338.967                          50.500          49.750          43.000          41.500
C19  24218513.882    24218516.391    24218513.255    24218509.096                    24218512.765    24218512.524   127269153.942 8 126112268.765 7  95038689.654 8 102476472.495 8                  97517949.233 8  96278339.337 8      2758.047        2732.928        2059.580        2220.748                        2113.347        2086.485          48.250          47.500          50.000          48.500                          50.250          52.750
C32  23853368.299    23853369.430    23853371.285    23853368.513                    23853370.617    23853370.425   125350283.796 8 124210960.759 8  93605807.308 8 100931470.176 8                  96047685.993 8  94826739.049 9     -2769.129       -2743.911       -2067.836       -2229.686                       -2121.727       -2094.782          49.250          51.000          52.500          50.250                          53.250          55.500
E24  22957451.187    22957462.729    22957443.031    22957461.508    22957461.414   120642218.361 8  90089981.837 8  97923891.868 8  92440153.622 9  91265066.868 9      2222.652        1659.790        1804.115        1703.086        1681.436          52.000          53.250          50.750          54.750          56.750
R11  19687066.136    19687066.502    19687066.856    19687066.499                   105201734.393 9 105201753.395 8  81823570.431 8  81823572.433 8                      1934.128        1934.128        1504.317        1504.306                          54.500          53.750          49.000          49.000
C37  22049021.898    22049023.039    22049025.049    22049023.433                    22049024.626    22049024.405   115868427.616 8 114815048.714 8  86525143.385 9  93296653.997 8                  88782311.688 9  87653719.928 9       816.341         808.923         609.602         657.318                         625.526         617.583          50.250          52.000          56.250          53.750                          57.000          59.500
C20  22017538.751    22017541.208    22017534.746    22017530.436                    22017534.330    22017534.121   115702983.421 8 114651155.540 8  86401589.828 9  93163422.068 8                  88655548.441 9  87528586.529 9       134.392         133.174         100.345         108.225                         102.981         101.670          51.250          52.250          55.750          53.250                          56.750          59.000
R19  24485925.299    24485923.812    24485922.900    24485925.430                   130983192.319 6 130983188.317 6 101875811.443 6 101875806.449 6                      2620.144        2620.144        2037.940        2037.953                          36.750          36.250          38.250          37.000
R01  19192292.284    19192292.506    19192293.704    19192294.219                   102593804.375 8 102593839.380 8  79795223.867 7  79795224.884 7                       155.007         155.007         120.538         120.527                          51.250          50.000          45.000          43.500
G09  24055058.748    24055058.795                    24055059.693    24055059.575    24055058.104   126410241.117 7 126410232.110 7                  98501492.118 7  98501494.130 7  94397268.226 8     -3201.198       -3201.198                       -2494.388       -2494.402       -2390.463          44.000          42.500                          42.500          44.250          49.250
G27  25110013.624    25110013.347                    25110012.976    25110013.424    25110011.652   131954015.437 7 131954014.441 5                 102821310.980 5 102821313.985 6  98537090.655 7        44.774          44.774                          34.954          34.897          33.456          42.000          32.750                          32.750          39.500          45.750
G05  20805722.761    20805722.609                    20805719.855    20805719.778                   109334843.699 8 109334842.703 8                  85195988.339 8  85195984.347 8                      -545.082        -545.082                        -424.729        -424.738                          50.250          51.000                          51.000          50.750
G30  20427290.501    20427289.985                    20427290.811    20427290.978    20427288.905   107346174.600 8 107346170.601 8                  83646376.295 8  83646384.295 8  80161113.293 9      -181.727        -181.727                        -141.609        -141.616        -135.709          51.500          52.250                          52.250          52.500          58.250
R02  22432774.494    22432774.249    22432774.708    22432774.386                   119705611.704 8 119705605.708 8  93104389.862 7  93104354.866 7                      3820.108        3820.108        2971.204        2971.182                          52.750          51.750          45.250          44.250
E09  22326572.154    22326572.327    22326571.169    22326571.086    22326571.012   117326987.499 8  87614320.593 9  95232949.860 8  89899908.611 9  88757107.240 9     -1493.004       -1114.908       -1211.851       -1143.994       -1129.449          53.250          54.500          52.250          55.750          57.750
G08  24944638.517    24944638.084                    24944639.573    24944640.447    24944637.398   131084966.582 6 131084967.575 5                 102144131.941 5 102144130.946 6  97888124.052 7      1489.633        1489.633                        1160.745        1160.701        1112.331          38.750          35.750                          35.750          41.750          45.250
S25  39874444.258                   209540317.831 7                      -201.022                          46.000
E05  23791308.340    23791308.831    23791306.027    23791307.687    23791307.589   125024179.777 8  93362255.316 9 101480707.792 8  95797789.615 9  94580023.100 9      1051.297         785.061         853.326         805.539         795.302          52.250          55.000          52.250          56.250          58.500
S26  40229769.268                   211408924.723 6                        67.593                          38.000
R08  20803287.344    20803286.908    20803287.545    20803287.241                   111400790.863 8 111400703.872 8  86645004.012 8  86645035.012 8                     -2862.386       -2862.386       -2226.312       -2226.307                          52.000          51.750          49.250          48.250
R18  23484808.456    23484808.857    23484810.835    23484809.971                   125363514.432 7 125363498.439 7  97504952.997 6  97504939.989 6                      -221.050        -221.050        -171.998        -171.976                          46.250          46.500          41.750          41.250
C10                  38254464.616                    38254459.495    38254460.874                                                   199201047.727 7                 161867217.016 7 154034920.552 7                                                        82.784                          67.332          63.997                                                          44.750                          46.000          46.750
S23  38593402.075    38593402.466   202810200.495 7 151448667.328 7         3.210           2.413          46.750          47.250
E03  27460933.555    27460934.340    27460932.061    27460933.428    27460933.328   144308205.366 7 107762628.074 7 117133286.155 7 110573820.971 7 109168219.162 8      2635.987        1968.465        2139.616        2019.817        1994.143          45.000          44.500          42.750          46.250          48.500
E25  28579507.045    28579508.544    28579504.828    28579507.059    28579506.993   150186326.373 7 112152129.749 7 121904487.109 6 115077837.936 7 113614986.477 7      3265.205        2438.319        2650.375        2501.958        2470.147          43.500          42.000          40.500          43.250          45.250
C07                  39690215.993                    39690207.863    39690209.303                                                   206677287.186 7                 167942312.366 7 159816075.738 7                                                      -577.970                        -469.592        -446.838                                                          43.500                          42.250          43.250
G07  21730464.372    21730464.067                    21730461.785    21730461.426                   114194401.875 8 114194406.881 8                  88982667.469 8  88982664.472 8                     -1951.826       -1951.826                       -1520.896       -1520.898                          49.000          50.500                          50.500          48.750
C05                  39983021.929                    39983018.069    39983016.523                                                   208202098.240 6                 169181247.086 7 160995043.103 7                                                        -1.917                          -1.516          -1.462                                                          41.000                          42.250          43.750
S28  41262446.079    41262451.879   216835678.085 6 161922709.545 6         1.026           0.790          39.750          40.500
E01  27941386.206    27941385.946    27941385.639    27941384.607    27941384.570   146833100.123 7 109648036.332 7 119182646.440 7 112508420.421 7 111078225.519 7     -2763.106       -2063.344       -2242.769       -2117.168       -2090.258          45.750          43.750          42.250          45.000          47.250
R09  23450380.652    23450381.235    23450381.918    23450381.327    23450367.540   125223998.481 8 125223815.489 7  97396438.863 7  97396310.869 6  94024941.033 7     -4152.475       -4152.475       -3229.673       -3229.692       -3117.877          48.250          47.500          43.000          41.750          43.750
I09  41078251.872   161199928.944 6      -641.602          36.250
I03  41442721.459   162630176.125 7       -45.516          43.000
I02  37510354.613   147198750.619 7       336.533          42.500
I04  41216717.955   161743249.71516      -333.945          37.000
I06  38312855.211   150347735.942 7        26.840          42.000
C02                                                                                                                                                                                                                                                                                                         1.764                                                                                                          31.000
C12                                                                                                                                                                                                                                                                                       283.566         270.229                                                                                          27.500          28.250
> 2020  6 25  0  2  0.0000000  0 52
S44  40946365.510                   215174652.390 6                        93.080                          41.250
C23  23531284.982    23531286.649    23531278.922    23531275.669                    23531278.336    23531278.226   123657693.852 8 122533602.698 8  92341846.982 8  99568596.794 8                  94750755.819 9  93546295.298 9     -2221.787       -2201.575       -1659.145       -1788.982                       -1702.429       -1680.786          50.000          51.000          53.500          51.750                          54.000          56.500
R10  20422258.416    20422257.781                                                   108862243.065 8 108862147.074 8                                                     -2681.164       -2681.164                                                          52.000          51.500
C40  38268770.717    38268773.002    38268769.487    38268768.845                    38268769.190    38268768.759   201103868.794 7 199275550.986 8 150174914.404 8 161927714.531 8                 154092522.251 8 152133730.218 8      -312.502        -309.692        -233.457        -251.703                        -239.509        -236.477          47.500          48.750          50.250          48.750                          50.500          53.250
R17  24014556.547    24014557.529    24014560.022    24014558.927                   128506576.305 7 128506707.304 7  99949699.512 6  99949696.532 6                     -2921.705       -2921.705       -2272.439       -2272.469                          46.250          45.500          39.000          37.750
S36  38389613.592    38389616.725   201740097.391 7 150649052.700 8        -1.025           -.735          46.750          49.250
E04  28550016.072    28550015.725    28550015.530    28550014.865    28550014.806   150031399.386 7 112036449.851 7 121778740.377 6 114959139.908 7 113497794.015 7     -2716.420       -2028.491       -2204.879       -2081.400       -2054.951          43.000          43.000          41.000          45.250          47.250
E31  24379553.405    24379554.397    24379551.163    24379553.490    24379553.301   128115644.531 8  95670638.200 8 103989820.236 8  98166391.690 9  96918516.583 9      -614.652        -459.000        -498.913        -470.975        -464.989          52.000          53.750          51.500          55.500          57.500
E15  27462386.853    27462388.472    27462386.196    27462387.433    27462387.398   144315852.222 7 107768310.698 7 117139468.562 7 110579658.453 7 109173984.211 7     -1035.460        -773.242        -840.473        -793.413        -783.323          45.000          44.500          42.500          45.500          47.750
S27  39500002.234                   207573887.208 6                        -1.226                          38.500
G13  21867525.893    21867525.446                    21867522.905                                   114914659.792 8 114914650.803 6                  89543891.310 6                                      2512.173        2512.173                        1957.525                                          49.500          38.500                          38.500
G15  24369173.127    24369173.722                    24369170.755    24369170.516                   128060722.109 7 128060874.114 4                  99787695.927 4  99787696.933 6                      3479.682        3479.682                        2711.452        2711.390                          42.750          29.750                          29.750          40.000
G28  22583496.770    22583496.464                    22583494.187                                   118677098.310 7 118677083.332 5                  92475650.837 5                                      2963.437        2963.437                        2309.168                                          46.750          35.500                          35.500
G18  24757692.964    24757693.481    24757691.514    24757690.854    24757691.241    24757694.256   130102560.066 6 130102554.087 4 130102602.083 7 101378614.917 4 101378611.893 7  97154501.656 7      1224.640        1224.640        1224.459         954.192         954.264         914.501          41.500          27.000          42.250          27.000          42.750          45.000
R12  23015742.316    23015742.818    23015742.830    23015743.586                   122945973.728 8 122945981.725 8  95624646.184 7  95624661.185 6                      4286.163        4286.163        3333.657        3333.655                          50.750          49.750          42.750          41.500
C19  24202788.443    24202790.644    24202787.378    24202783.328                    24202786.884    24202786.620   127186513.822 8 126030379.914 8  94976977.901 8 102409931.125 8                  97454627.608 8  96215822.645 8      2751.252        2726.349        2054.474        2215.273                        2108.126        2081.328          48.250          48.000          49.750          48.250                          50.500          52.750
C32  23869201.801    23869203.049    23869204.885    23869202.025                    23869204.068    23869203.981   125433489.549 8 124293410.101 8  93667941.482 8 100998467.015 8                  96111441.062 8  94889683.668 9     -2777.968       -2752.690       -2074.449       -2236.815                       -2128.614       -2101.547          50.500          51.000          52.000          50.500                          52.500          55.000
E24  22944792.640    22944804.371    22944784.744    22944802.969    22944802.916   120575697.538 8  90040307.213 8  97869897.706 8  92389183.137 9  91214744.312 9      2212.092        1651.870        1795.513        1694.960        1673.420          51.500          53.250          51.750          54.750          56.750
R11  19676270.236    19676270.672    19676270.696    19676270.824                   105144045.044 9 105144064.042 8  81778700.949 8  81778702.952 8                      1911.813        1911.813        1486.944        1486.945                          54.000          53.250          49.250          48.750
C37  22044403.114    22044404.446    22044406.518    22044404.817                    22044406.114    22044405.829   115844156.792 8 114790998.541 8  86507019.079 9  93277111.269 9                  88763714.575 9  87635359.221 9       801.756         794.458         598.704         645.549                         614.313         606.514          51.500          51.500          56.500          54.000                          56.750          59.250
C20  22016814.118    22016816.526    22016810.279    22016806.039                    22016809.902    22016809.663   115699176.399 8 114647383.118 8  86398746.913 9  93160356.672 8                  88652631.370 9  87525706.538 9       119.483         118.376          89.233          96.163                          91.530          90.378          51.250          52.250          55.750          53.500                          56.750          59.000
R19  24471279.538    24471280.156    24471280.840    24471281.255                   130904860.301 6 130904856.295 5 101814886.602 6 101814881.621 6                      2601.995        2601.995        2023.798        2023.759                          36.500          35.750          38.500          37.250
R01  19191482.450    19191481.530    19191482.858    19191483.350                   102589469.466 8 102589504.479 8  79791852.279 7  79791853.294 7                       133.904         133.904         104.180         104.170                          50.500          49.750          45.000          44.000
G09  24073345.860    24073346.038                    24073347.248    24073347.275    24073345.872   126506343.008 7 126506334.012 6                  98576376.691 6  98576378.688 7  94469032.600 8     -3205.550       -3205.550                       -2497.918       -2497.903       -2393.839          43.500          41.750                          41.750          43.750          49.250
G27  25109812.292    25109812.593                    25109812.765    25109813.046    25109810.901   131952962.078 6 131952961.077 5                 102820490.176 5 102820493.167 6  98536304.052 7        25.330          25.330                          19.792          19.798          18.945          40.750          32.750                          32.750          39.000          44.750
G05  20808891.252    20808891.409                    20808888.832    20808888.982                   109351496.066 8 109351495.067 8                  85208964.207 8  85208960.211 8                      -565.056        -565.056                        -440.304        -440.306                          50.250          51.000                          51.000          50.750
G30  20428370.914    20428370.408                    20428371.264    20428371.350    20428369.372   107351852.373 8 107351848.370 8                  83650800.538 8  83650808.537 8  80165353.193 9      -196.705        -196.705                        -153.259        -153.262        -146.874          51.750          52.500                          52.500          53.000          58.000
R02  22411308.311    22411307.875    22411308.327    22411308.474                   119591067.034 8 119591061.029 8  93015299.600 7  93015264.593 7                      3816.114        3816.114        2968.057        2968.086                          50.500          50.000          44.500          44.250
E09  22335118.589    22335118.812    22335117.705    22335117.561    22335117.448   117371899.291 8  87647858.612 9  95269404.228 8  89934321.535 9  88791082.711 9     -1501.086       -1120.924       -1218.387       -1150.161       -1135.542          52.500          54.500          52.250          55.500          57.750
G08  24936177.725    24936177.389                    24936179.201    24936179.642    24936177.460   131040508.372 6 131040509.379 5                 102109489.220 5 102109488.217 6  97854924.786 7      1474.174        1474.174                        1148.636        1148.576        1100.730          38.000          35.000                          35.000          40.750          47.250
C12                  26862897.451                    26862890.387                                                                   139882092.228 4                 113665670.817 4                                                                       333.680                         271.046                                                                          26.000                          27.250
S25  39875618.491                   209547730.508 7                      -201.278                          46.000
E05  23785329.333    23785329.743    23785326.889    23785328.548    23785328.435   124992759.259 8  93338791.945 9 101455204.127 8  95773714.153 9  94556253.684 9      1043.454         779.194         846.948         799.522         789.360          52.500          55.000          52.250          56.250          58.750
S26  40229382.670                   211406887.835 6                        68.080                          38.750
R08  20819366.234    20819365.739    20819365.907    20819365.917                   111486890.282 8 111486803.286 8  86711970.197 8  86712001.197 8                     -2877.523       -2877.523       -2238.115       -2238.112                          52.500          51.500          49.500          48.750
R18  23486124.476    23486123.839    23486125.323    23486125.030                   125370535.676 7 125370519.668 7  97510413.957 7  97510400.957 6                      -246.939        -246.939        -192.051        -192.076                          47.500          46.750          42.000          41.500
C10                  38254001.171                    38253995.278    38253996.350                                                   199198631.181 7                 161865253.366 7 154033051.915 7                                                        78.202                          63.699          60.506                                                          44.000                          45.750          46.500
S23  38593382.340    38593383.609   202810099.869 7 151448591.863 7         3.398           2.564          46.500          47.500
E03  27445887.641    27445888.529    27445886.167    27445887.267    27445887.324   144229137.580 7 107703583.992 7 117069107.775 7 110513236.605 7 109108404.941 8      2635.251        1967.890        2139.022        2019.238        1993.560          45.250          45.750          43.000          47.500          49.500
E25  28560866.984    28560868.786    28560865.360    28560867.315    28560867.439   150088374.237 7 112078983.688 7 121824980.526 6 115002783.749 7 113540886.360 7      3264.989        2438.183        2650.189        2501.764        2469.959          43.750          42.750          40.000          43.750          46.250
C07                  39693555.981                    39693547.665    39693548.792                                                   206694679.019 7                 167956444.669 7 159829524.221 7                                                      -581.539                        -472.640        -449.763                                                          43.250                          42.250          43.750
G07  21741634.278    21741634.247                    21741631.996    21741631.397                   114253101.956 8 114253106.959 8                  89028407.782 8  89028404.789 8                     -1961.466       -1961.466                       -1528.441       -1528.435                          48.500          50.250                          50.250          48.500
C05                  39983032.709                    39983029.006    39983026.988                                                   208202154.190 6                 169181292.575 7 160995086.377 7                                                        -1.765                          -1.524          -1.399                                                          40.750                          42.250          43.750
S28  41262439.480    41262444.968   216835641.511 6 161922682.227 6         1.766           1.217          39.750          40.250
E01  27957175.244    27957175.377    27957174.179    27957173.677    27957173.788   146916072.438 7 109709996.168 7 119249994.094 6 112571996.604 7 111140993.526 7     -2768.385       -2067.273       -2247.050       -2121.192       -2094.228          46.000          44.500          41.250          44.500          47.250
R09  23473722.016    23473721.674    23473722.344    23473721.529    23473708.353   125348636.447 7 125348453.451 7  97493379.488 7  97493251.481 6  94118526.050 7     -4156.759       -4156.759       -3233.037       -3233.035       -3121.112          47.500          47.250          42.250          41.250          44.250
I04  41219257.377   161753217.54716      -332.783          38.250
I09  41083154.217   161219167.106 5      -641.127          35.000
I03  41443069.494   162631539.583 7       -45.503          42.750
I02  37507788.467   147188678.485 7       334.964          42.750
I06  38312651.162   150346935.028 6        26.656          41.250
C02                                                                                                                                                                                                                                                                                                         2.283                                                                                                          30.750
> 2020  6 25  0  2 30.0000000  0 52
S44  40945835.140                   215171863.575 6                        92.932                          40.500
C23  23543996.425    23543997.982    23543990.332    23543987.101                    23543989.782    23543989.618   123724492.734 8 122599794.327 8  92391729.260 8  99622382.910 8                  94801939.379 9  93596828.217 9     -2231.487       -2211.232       -1666.354       -1796.745                       -1709.853       -1688.109          50.000          50.500          53.500          52.000                          54.000          56.500
R10  20437398.107    20437396.987                                                   108942944.209 8 108942848.222 8                                                     -2698.848       -2698.848                                                          52.500          51.500
C40  38270571.130    38270573.169    38270569.378    38270568.801                    38270569.088    38270568.752   201113327.611 7 199284923.824 8 150181977.807 8 161935330.729 8                 154099769.928 8 152140885.761 8      -318.017        -315.173        -237.465        -256.098                        -243.715        -240.602          47.500          48.750          50.000          48.750                          50.750          53.250
R17  24030978.359    24030979.383    24030982.966    24030980.198                   128594451.118 8 128594582.117 7 100018046.618 6 100018043.615 6                     -2936.672       -2936.672       -2284.054       -2284.094                          48.750          47.500          38.750          39.000
S36  38389618.164    38389621.717   201740125.012 7 150649071.039 8        -1.011           -.729          46.500          49.000
E04  28565529.080    28565529.752    28565528.968    28565528.482    28565528.458   150112924.677 7 112097329.153 7 121844913.514 6 115021607.353 7 113559467.394 7     -2718.568       -2030.152       -2206.649       -2083.100       -2056.622          43.250          43.250          40.750          45.250          47.000
E31  24383102.113    24383103.019    24383099.812    24383102.006    24383101.860   128134292.338 8  95684563.516 8 104004956.446 8  98180680.274 9  96932623.532 9      -628.537        -469.381        -510.194        -481.624        -475.504          52.000          53.500          52.000          55.500          57.500
E15  27468337.092    27468339.178    27468336.098    27468337.602    27468337.641   144347120.544 7 107791660.438 7 117164848.716 7 110603617.327 7 109197638.520 7     -1049.109        -783.386        -851.497        -803.829        -793.606          45.000          44.750          42.750          45.500          47.750
S27  39500008.850                   207573921.654 6                        -1.155                          38.750
G13  21853204.901    21853204.773                    21853202.429                                   114839404.957 8 114839395.974 6                  89485251.180 6                                      2504.732        2504.732                        1951.779                                          50.250          39.750                          39.750
G15  24349315.278    24349315.435                    24349312.042    24349312.415                   127956367.033 7 127956519.029 5                  99706380.282 5  99706381.297 6                      3477.260        3477.260                        2709.542        2709.497                          42.750          30.000                          30.000          40.750
G28  22566607.823    22566606.775                    22566604.740                                   118588345.764 7 118588330.769 5                  92406493.026 5                                      2953.369        2953.369                        2301.233                                          46.500          34.500                          34.500
G18  24750753.444    24750753.409    24750752.383    24750751.974    24750752.055    24750754.144   130066091.917 7 130066085.901 4 130066133.886 7 101350198.170 4 101350195.181 7  97127268.957 7      1206.582        1206.582        1206.715         940.202         940.175         901.010          42.500          27.750          44.000          27.750          43.750          44.750
R12  22991690.292    22991690.543    22991692.137    22991691.883                   122817491.687 8 122817499.691 8  95524715.772 7  95524730.780 7                      4279.248        4279.248        3328.318        3328.328                          50.500          50.000          43.250          42.250
C19  24187101.048    24187103.733    24187100.159    24187095.967                    24187099.575    24187099.424   127104077.005 7 125948692.509 8  94915417.943 8 102343553.430 8                  97391461.746 8  96153459.739 8      2744.450        2719.638        2049.471        2209.838                        2102.922        2076.211          47.500          49.000          50.000          48.750                          50.250          53.000
C32  23885086.196    23885086.897    23885089.089    23885086.717                    23885088.539    23885088.340   125516962.683 8 124376124.393 8  93730275.311 8 101065679.142 8                  96175400.981 8  94952830.541 9     -2786.889       -2761.578       -2081.160       -2243.996                       -2135.390       -2108.267          50.250          49.750          52.250          51.250                          52.750          55.250
E24  22932194.840    22932206.257    22932186.578    22932205.073    22932204.864   120509494.555 8  89990869.923 8  97816161.518 8  92338456.178 9  91164662.189 9      2201.462        1643.932        1786.893        1686.815        1665.375          51.750          53.750          51.500          54.250          56.750
R11  19665600.291    19665600.628    19665600.964    19665600.855                   105087027.778 9 105087046.783 8  81734354.199 8  81734356.204 8                      1889.350        1889.350        1469.494        1469.489                          54.000          53.250          49.500          49.250
C37  22039868.209    22039868.988    22039871.495    22039869.775                    22039871.110    22039870.808   115820324.973 8 114767383.379 8  86489222.597 9  93257922.014 9                  88745453.836 9  87617330.611 9       787.092         779.914         587.763         633.768                         603.103         595.434          50.500          51.500          56.250          54.000                          57.000          59.250
C20  22016175.188    22016177.157    22016171.153    22016166.887                    22016170.832    22016170.519   115695817.781 8 114644055.045 8  86396238.857 9  93157652.332 8                  88650057.880 9  87523165.763 9       104.480         103.486          78.017          84.129                          80.044          79.034          51.500          52.000          56.000          53.500                          56.500          59.250
R19  24456740.953    24456739.477    24456740.805    24456741.333                   130827079.297 6 130827075.317 6 101754390.359 6 101754385.354 6                      2583.470        2583.470        2009.508        2009.529                          36.000          36.000          37.500          36.500
R01  19190789.942    19190789.266    19190790.597    19190791.124                   102585768.017 8 102585803.027 8  79788973.373 7  79788974.384 7                       112.837         112.837          87.760          87.775                          50.500          49.750          45.250          44.000
G09  24091658.354    24091658.266                    24091659.163    24091659.068    24091657.830   126602573.182 7 126602564.187 7                  98651361.219 7  98651363.227 7  94540892.768 8     -3209.924       -3209.924                       -2501.199       -2501.198       -2397.001          44.750          42.250                          42.250          44.250          49.000
G27  25109722.532    25109722.762                    25109723.161    25109722.893    25109721.473   131952490.818 6 131952489.837 5                 102820122.968 5 102820125.975 6  98535952.144 7         5.888           5.888                           4.598           4.525           4.354          41.250          33.750                          33.750          39.250          45.250
G05  20812174.372    20812174.409                    20812171.796    20812171.945                   109368748.243 8 109368747.244 8                  85222407.459 8  85222403.463 8                      -585.075        -585.075                        -455.890        -455.888                          50.250          51.000                          51.000          51.000
G30  20429536.770    20429536.368                    20429537.269    20429537.354    20429535.244   107357979.306 8 107357975.302 8                  83655574.776 8  83655582.776 8  80169928.506 9      -211.708        -211.708                        -164.966        -164.971        -158.090          51.500          52.250                          52.250          53.000          58.000
R02  22389864.681    22389864.939    22389865.813    22389865.404                   119476645.331 8 119476639.327 8  92926304.958 7  92926269.968 7                      3811.999        3811.999        2964.889        2964.880                          49.750          50.000          44.000          43.500
E09  22343711.175    22343711.375    22343710.216    22343710.170    22343710.052   117417053.646 8  87681577.770 9  95306055.495 8  89968920.325 9  88825241.686 9     -1509.203       -1126.996       -1224.999       -1156.401       -1141.700          52.750          54.500          52.000          55.500          57.500
G08  24927806.233    24927805.184                    24927806.272    24927807.577    24927803.593   130996508.378 6 130996509.380 5                 102075203.508 5 102075202.528 6  97822067.674 7      1458.828        1458.828                        1136.827        1136.763        1089.421          39.000          35.000                          35.000          39.250          45.000
E13  28574668.454    28574667.719    28574668.874    28574666.706                   150160958.04614 112133142.653 4 121883852.535 5 115058357.444 3                      1216.836         908.989         988.070         932.782                          29.500          25.250          30.000          22.750
S25  39876792.084                   209553768.649 7                      -201.123                          45.750
E05  23779394.696    23779395.471    23779392.586    23779394.198    23779394.077   124961574.007 8  93315504.260 9 101429891.421 8  95749818.961 9  94532662.244 9      1035.586         773.315         840.572         793.499         783.413          52.000          55.000          52.250          56.000          58.250
S26  40228995.846                   211404848.095 6                        68.024                          38.750
R08  20835528.355    20835528.683    20835528.707    20835529.227                   111573443.358 8 111573356.364 8  86779289.234 8  86779320.226 8                     -2892.687       -2892.687       -2249.876       -2249.856                          52.250          51.250          49.750          48.500
R18  23487583.632    23487584.010    23487585.256    23487585.939                   125378332.107 7 125378316.102 7  97516477.867 7  97516464.864 6                      -272.854        -272.854        -212.280        -212.231                          47.500          46.750          42.250          41.250
C10                  38253562.709                    38253557.457    38253558.515                                                   199196350.673 7                 161863400.292 7 154031288.509 7                                                        73.775                          59.953          57.019                                                          44.750                          45.750          46.500
S23  38593363.756    38593364.537   202809999.186 7 151448516.418 7         3.266           2.500          46.500          47.250
E03  27430847.014    27430847.447    27430845.443    27430846.286    27430846.237   144150097.081 7 107644560.269 7 117004951.565 7 110452673.123 7 109048611.332 8      2634.149        1967.046        2138.044        2018.375        1992.717          46.000          45.000          43.250          46.750          48.750
E25  28542228.961    28542230.297    28542227.071    28542228.583    28542228.690   149990427.788 7 112005841.885 7 121745478.547 6 114927733.869 7 113466790.511 7      3264.737        2437.915        2649.920        2501.545        2469.729          45.000          44.000          41.500          44.250          46.750
C07                  39696916.243                    39696908.148    39696909.566                                                   206712177.961 7                 167970664.003 7 159843055.502 7                                                      -585.074                        -475.405        -452.465                                                          43.250                          42.250          43.500
G07  21752858.709    21752859.025                    21752856.796    21752856.438                   114312088.540 8 114312093.551 8                  89074371.353 8  89074368.353 8                     -1970.937       -1970.937                       -1535.802       -1535.789                          48.750          50.000                          50.000          48.250
C05                  39983041.852                    39983039.019    39983037.631                                                   208202207.181 6                 169181335.637 7 160995127.365 7                                                        -1.680                          -1.481          -1.354                                                          41.000                          42.250          43.500
S28  41262432.798    41262437.775   216835603.821 6 161922653.779 6         1.594           1.132          39.250          40.500
E01  27972994.587    27972994.923    27972993.602    27972993.357    27972993.216   146999203.954 7 109772074.898 7 119317470.976 6 112635694.784 7 111203881.982 7     -2773.630       -2071.199       -2251.294       -2125.230       -2098.212          46.000          43.250          41.500          44.750          47.000
R09  23497084.844    23497085.713    23497083.537    23497085.270    23497072.590   125473399.329 8 125473216.324 7  97590417.270 6  97590289.268 6  94212204.852 7     -4160.770       -4160.770       -3236.188       -3236.166       -3124.147          48.250          47.250          41.750          40.500          44.000
I09  41088052.625   161238391.306 5      -640.527          35.250
I03  41443415.633   162632901.469 7       -45.390          42.750
I02  37505233.049   147178652.572 7       333.364          42.250
I06  38312448.143   150346137.493 7        26.422          42.250
C02                                                                                                                                                                                                                                                                                                         1.832                                                                                                          31.250
C12                                                                                                                                                                                                                                                                                                       244.445                                                                                                          25.500
> 2020  6 25  0  3  0.0000000  0 53
S44  40945304.371                   215169077.783 6                        92.951                          41.000
C23  23556762.856    23556764.669    23556756.833    23556753.597                    23556756.400    23556756.154   123791581.327 8 122666273.026 8  92441827.889 8  99676402.300 8                  94853344.927 9  93647580.305 9     -2241.093       -2220.760       -1673.515       -1804.541                       -1717.203       -1695.374          49.750          50.250          53.500          52.250                          54.500          56.500
R10  20452635.804    20452635.810                                                   109024174.489 8 109024078.503 8                                                     -2716.461       -2716.461                                                          52.000          51.500
C40  38272402.025    38272404.479    38272400.387    38272399.888                    38272400.033    38272399.850   201122950.220 7 199294458.943 8 150189163.531 8 161943078.800 8                 154107143.097 8 152148165.203 8      -323.445        -320.533        -241.593        -260.466                        -247.884        -244.734          47.750          48.750          50.000          48.500                          50.250          53.000
R17  24047483.478    24047484.340    24047486.155    24047486.149                   128682775.112 8 128682906.105 7 100086743.047 6 100086740.040 6                     -2951.576       -2951.576       -2295.637       -2295.635                          48.250          47.000          40.750          39.750
S36  38389622.850    38389626.333   201740156.367 7 150649086.854 8        -1.012           -.679          47.000          50.500
E04  28581054.587    28581055.104    28581054.474    28581053.760    28581053.829   150194510.500 7 112158253.634 7 121911135.773 6 115084121.177 7 113621186.543 7     -2720.484       -2031.535       -2208.159       -2084.526       -2058.031          43.000          42.500          40.250          44.500          46.250
E31  24386729.769    24386730.420    24386727.062    24386729.484    24386729.211   128153354.376 8  95698798.151 8 104020428.877 8  98195286.252 9  96947043.841 9      -642.306        -479.664        -521.380        -492.187        -485.930          52.250          53.500          51.500          55.500          57.500
E15  27474364.387    27474366.641    27474363.976    27474365.087    27474365.056   144378795.545 7 107815313.885 7 117190558.967 7 110627887.811 7 109221600.485 7     -1062.570        -793.474        -862.473        -814.193        -803.840          44.750          44.500          43.250          45.500          47.750
S27  39500013.662                   207573957.193 6                        -1.079                          37.500
G13  21838927.350    21838926.941                    21838925.038                                   114764374.771 8 114764365.783 6                  89426786.109 6                                      2497.211        2497.211                        1945.923                                          50.000          39.250                          39.250
G15  24329470.756    24329470.079                    24329467.669    24329467.868                   127852082.931 7 127852234.933 4                  99625119.957 4  99625120.959 6                      3474.899        3474.899                        2707.667        2707.740                          42.250          28.000                          28.000          41.000
G28  22549776.662    22549776.019                    22549773.639                                   118499896.326 8 118499881.344 6                  92337571.388 6                                      2943.240        2943.240                        2293.429                                          48.000          36.750                          36.750
G18  24743916.305    24743915.580    24743915.160    24743913.737    24743914.992    24743916.903   130030160.599 7 130030154.607 4 130030202.611 7 101322199.762 4 101322196.773 7  97100437.157 7      1188.879        1188.879        1188.767         926.380         926.350         887.755          43.250          27.000          43.750          27.000          42.750          45.500
R12  22967676.122    22967677.012    22967677.582    22967678.044                   122689217.162 8 122689225.162 8  95424946.765 7  95424961.766 6                      4272.318        4272.318        3322.917        3322.916                          50.250          49.750          43.000          41.750
C19  24171453.067    24171455.581    24171452.097    24171447.641                    24171451.472    24171451.282   127021845.332 7 125867208.399 8  94854011.195 8 102277340.929 8                  97328453.080 8  96091252.033 8      2737.651        2712.709        2044.328        2204.327                        2097.649        2070.974          47.750          48.750          50.000          48.500                          50.500          53.000
C32  23901021.280    23901022.633    23901024.196    23901021.608                    23901023.660    23901023.400   125600701.960 8 124459102.391 8  93792807.881 8 101133105.572 8                  96239564.841 8  95016178.760 9     -2795.747       -2770.308       -2087.729       -2251.129                       -2142.198       -2114.962          50.000          50.750          52.250          50.500                          53.250          55.250
E24  22919657.368    22919669.003    22919649.248    22919667.701    22919667.576   120443610.587 8  89941670.862 8  97762684.276 8  92287973.659 9  91114821.398 9      2190.806        1636.004        1778.270        1678.688        1657.353          52.000          53.250          51.250          54.500          56.750
R11  19655056.416    19655056.507    19655056.964    19655056.709                   105030684.148 9 105030703.149 8  81690531.373 8  81690533.379 8                      1866.873        1866.873        1452.021        1452.025                          54.750          53.500          49.250          48.750
C37  22035416.550    22035417.451    22035419.934    22035418.335                    22035419.500    22035419.261   115796932.149 8 114744203.209 8  86471753.934 9  93239086.236 9                  88727529.469 9  87599634.095 9       772.442         765.460         576.845         621.983                         591.895         584.375          50.750          51.500          56.250          54.000                          57.250          59.250
C20  22015621.439    22015623.722    22015617.477    22015613.271                    22015617.111    22015616.864   115692908.229 8 114641171.939 8  86394066.141 9  93155309.572 8                  88647828.484 9  87520964.707 9        89.513          88.690          66.848          72.076                          68.586          67.721          51.250          52.000          55.750          53.500                          56.750          59.000
R19  24442304.612    24442304.028    24442304.181    24442303.235                   130749853.006 6 130749849.013 6 101694325.436 6 101694320.454 6                      2565.173        2565.173        1995.138        1995.107                          38.500          38.250          36.500          36.000
R01  19190216.374    19190215.769    19190217.673    19190217.304                   102582701.356 8 102582736.362 8  79786588.179 7  79786589.186 7                        91.587          91.587          71.264          71.278                          51.000          50.000          44.750          43.750
G09  24109994.716    24109994.385                    24109995.597    24109994.911    24109994.194   126698930.771 7 126698921.769 6                  98726445.035 6  98726447.040 7  94612848.077 8     -3214.025       -3214.025                       -2504.424       -2504.416       -2400.061          42.750          41.750                          41.750          43.750          49.500
G27  25109744.104    25109743.843                    25109744.542    25109744.043    25109742.654   131952602.012 6 131952601.004 5                 102820209.590 5 102820212.583 6  98536035.145 7       -13.463         -13.463                         -10.474         -10.512         -10.066          40.750          32.750                          32.750          39.250          45.750
G05  20815571.112    20815571.360                    20815568.818    20815569.005                   109386599.890 8 109386598.884 8                  85236317.822 8  85236313.831 8                      -605.061        -605.061                        -471.454        -471.465                          50.000          51.250                          51.250          50.750
G30  20430788.187    20430787.627                    20430788.453    20430788.532    20430786.495   107364554.630 8 107364550.636 8                  83660698.415 8  83660706.415 8  80174838.661 9      -226.661        -226.661                        -176.606        -176.601        -169.243          51.000          52.500                          52.500          52.750          57.750
R02  22368446.715    22368447.001    22368447.121    22368446.711                   119362349.043 8 119362343.037 8  92837407.877 7  92837372.872 7                      3807.792        3807.792        2961.623        2961.625                          52.500          51.250          45.250          44.500
E09  22352349.808    22352350.108    22352349.030    22352348.905    22352348.789   117462450.475 8  87715477.996 9  95342903.565 8  90003704.904 9  88859584.089 9     -1517.300       -1133.040       -1231.556       -1162.594       -1147.814          52.750          54.250          52.250          55.500          57.750
G08  24919519.458    24919519.296                    24919521.224    24919521.250    24919518.766   130952968.136 6 130952969.129 6                 102041276.078 6 102041275.085 6  97789553.879 7      1443.464        1443.464                        1124.787        1124.762        1077.901          39.000          36.000                          36.000          41.500          45.250
E13  28567761.366    28567760.875    28567761.356    28567759.244    28567760.015   150124656.753 4 112106034.490 4 121854387.178 3 115030542.183 4 113568284.992 5      1203.422         898.626         976.722         922.003         910.262          27.250          27.250          22.250          29.500          31.750
S25  39877965.643                   209559801.715 7                      -201.268                          45.750
E05  23773505.384    23773505.907    23773503.165    23773504.782    23773504.676   124930624.866 8  93292392.886 9 101404770.363 8  95726104.687 9  94509249.419 9      1027.760         767.534         834.277         787.550         777.546          52.250          55.250          52.250          56.250          58.500
S26  40228608.166                   211402805.120 6                        68.445                          38.750
R08  20851776.864    20851776.243    20851777.214    20851776.980                   111660448.890 8 111660361.899 8  86846960.182 8  86846991.177 8                     -2907.744       -2907.744       -2261.550       -2261.536                          52.750          51.750          50.250          48.750
R18  23489190.696    23489190.451    23489192.521    23489191.056                   125386903.399 8 125386887.405 7  97523144.444 7  97523131.437 6                      -298.643        -298.643        -232.289        -232.275                          48.250          47.500          42.250          41.250
C10                  38253151.088                    38253145.637    38253146.847                                                   199194206.105 7                 161861657.673 7 154029630.193 7                                                        69.166                          56.165          53.629                                                          45.000                          45.750          46.500
S23  38593344.992    38593345.480   202809898.838 7 151448441.525 7         3.343           2.473          47.000          47.250
E03  27415811.070    27415811.688    27415809.809    27415810.990    27415810.599   144071084.551 7 107585557.436 7 116940818.036 7 110392131.088 7 108988838.907 8      2633.316        1966.446        2137.434        2017.723        1992.083          46.000          44.750          43.250          47.000          49.000
E25  28523590.959    28523592.440    28523589.957    28523591.479    28523591.447   149892488.357 7 111932705.303 7 121665982.269 6 114852689.392 7 113392699.983 7      3264.511        2437.735        2649.693        2501.310        2469.525          45.250          43.000          40.750          43.750          46.250
C07                  39700297.836                    39700289.389    39700290.628                                                   206729783.557 7                 167984969.971 6 159856669.261 7                                                      -588.704                        -478.269        -455.135                                                          42.750                          41.750          44.000
G07  21764138.395    21764138.001                    21764135.738    21764135.431                   114371360.103 8 114371365.108 8                  89120556.974 8  89120553.981 8                     -1980.475       -1980.475                       -1543.218       -1543.218                          48.500          49.500                          49.500          48.250
C05                  39983053.477                    39983048.491    39983047.146                                                   208202257.237 6                 169181376.304 7 160995166.056 7                                                        -1.562                          -1.502          -1.243                                                          41.000                          42.250          43.750
S28  41262424.641    41262430.477   216835568.061 6 161922627.048 6         1.048           0.700          39.250          40.500
E01  27988843.663    27988843.767    27988843.237    27988842.696    27988842.526   147082492.966 7 109834271.208 7 119385075.666 6 112699513.611 7 111266889.549 7     -2778.847       -2075.125       -2255.559       -2129.255       -2102.193          46.000          43.500          41.750          45.250          47.250
R09  23520472.105    23520472.542    23520471.883    23520472.927    23520459.420   125598283.988 7 125598100.998 7  97687549.765 7  97687421.764 6  94305975.106 7     -4164.859       -4164.859       -3239.286       -3239.305       -3127.190          46.250          46.000          42.750          41.000          43.500
I09  41092949.258   161257601.257 5      -640.397          35.250
I03  41443761.377   162634261.797 7       -45.185          43.000
I02  37502690.455   147168673.257 7       331.950          42.000
I06  38312246.032   150345343.198 7        26.411          42.000
I04  41224361.418   161773255.15316      -334.951          37.500
C02                                                                                                                                                                                                                                                                                                         2.149                                                                                                          30.750
C12                                                                                                                                                                                                                                                                                       244.147         232.192                                                                                          32.000          30.500
> 2020  6 25  0  3 30.0000000  0 53
S44  40944773.636                   215166295.012 6                        92.742                          41.000
C23  23569583.966    23569585.578    23569578.132    23569575.046                    23569577.752    23569577.423   123858957.823 8 122733037.007 8  92492141.508 8  99730653.505 8                  94904971.068 9  93698550.184 9     -2250.681       -2230.272       -1680.697       -1812.264                       -1724.538       -1702.628          49.250          50.250          53.250          52.000                          54.250          56.750
R10  20467973.313    20467973.097                                                   109105930.556 8 109105834.573 8                                                     -2733.939       -2733.939                                                          52.250          51.750
C40  38274264.380    38274266.315    38274262.681    38274262.213                    38274262.451    38274262.045   201132736.226 7 199304155.993 8 150196471.271 8 161950958.449 8                 154114641.471 8 152155568.263 8      -328.921        -325.894        -245.672        -264.863                        -252.035        -248.859          47.500          48.500          49.750          48.500                          50.500          52.750
R17  24064074.536    24064073.184    24064074.511    24064074.667                   128771543.956 7 128771674.957 7 100155785.476 6 100155782.472 6                     -2966.344       -2966.344       -2307.150       -2307.144                          46.500          45.250          39.750          39.500
S36  38389627.631    38389630.607   201740183.464 7 150649105.171 8         -.572           -.532          47.250          49.250
E04  28596591.606    28596592.035    28596591.067    28596590.461    28596590.517   150276156.458 7 112219223.044 6 121977406.895 6 115146681.095 7 113682951.208 7     -2722.529       -2033.094       -2209.884       -2086.137       -2059.615          42.750          41.750          40.000          44.000          46.000
E31  24390435.562    24390436.455    24390433.163    24390435.467    24390435.279   128172829.812 8  95713341.506 8 104036236.867 8  98210208.995 9  96961776.889 9      -656.059        -489.917        -532.515        -502.699        -496.309          52.000          53.750          51.500          55.500          57.500
E15  27480469.480    27480471.103    27480468.787    27480469.917    27480469.853   144410876.171 7 107839270.212 7 117216598.446 7 110652469.074 7 109245869.280 7     -1076.098        -803.618        -873.486        -824.557        -814.089          44.000          44.750          42.500          45.000          47.750
C12                  26857562.017                    26857555.524    26857556.525                                                   139854372.289 4                 113643108.203 5 108144218.329 5                                                       282.917                         231.056         219.699                                                          27.000                          31.500          31.250
S27  39500020.932                   207573994.216 6                        -1.299                          38.250
G13  21824692.774    21824692.224                    21824690.281                                   114689570.848 8 114689561.864 6                  89368497.355 6                                      2489.747        2489.747                        1940.004                                          49.750          38.250                          38.250
G15  24309639.362    24309638.748                    24309636.543    24309636.539                   127747870.846 7 127748022.839 4                  99543915.788 4  99543916.782 6                      3472.577        3472.577                        2705.909        2705.959                          43.250          29.000                          29.000          40.500
G28  22533003.235    22533002.369                    22533000.280                                   118411752.686 7 118411737.690 5                  92268888.027 5                                      2932.974        2932.974                        2285.431                                          46.750          35.500                          35.500
G18  24737181.195    24737181.394    24737180.259    24737179.678    24737180.116    24737181.908   129994767.334 7 129994761.358 4 129994809.330 7 101294620.650 4 101294617.630 7  97074007.155 7      1170.729        1170.729        1170.872         912.234         912.287         874.275          43.000          27.250          44.500          27.250          42.250          45.750
R12  22943703.481    22943703.364    22943703.578    22943704.229                   122561152.967 8 122561160.970 8  95325341.317 7  95325356.325 6                      4265.282        4265.282        3317.440        3317.418                          50.750          50.000          42.500          41.250
C19  24155843.905    24155846.305    24155843.024    24155839.015                    24155842.649    24155842.377   126939820.657 7 125785929.391 8  94792759.013 8 102211295.091 8                  97265603.007 8  96029200.904 8      2730.668        2705.864        2039.155        2198.703                        2092.324        2065.735          47.250          49.000          50.000          48.750                          50.000          52.500
C32  23917006.835    23917007.993    23917009.906    23917006.998                    23917009.092    23917008.943   125684706.081 8 124542342.850 8  93855538.239 8 101200745.258 8                  96303931.648 8  95079727.341 9     -2804.539       -2778.992       -2094.328       -2258.202                       -2148.938       -2121.644          49.750          49.750          52.750          50.250                          52.750          55.250
E24  22907181.240    22907192.494    22907172.903    22907191.238    22907191.226   120378046.840 8  89892710.934 8  97709466.959 8  92237736.516 9  91065222.863 9      2180.148        1628.012        1769.578        1670.483        1649.254          51.250          53.250          51.500          54.500          56.750
R11  19644638.833    19644638.931    19644638.960    19644639.022                   104975015.128 9 104975034.130 8  81647233.256 8  81647235.255 8                      1844.359        1844.359        1434.507        1434.514                          54.250          53.500          49.500          49.000
C37  22031048.452    22031049.900    22031051.982    22031050.346                    22031051.564    22031051.323   115773978.327 8 114721458.062 8  86454613.104 9  93220603.944 9                  88709941.487 9  87582269.689 9       757.828         750.943         565.900         610.182                         580.645         573.278          51.000          51.250          56.500          54.250                          57.000          59.500
C20  22015153.378    22015155.702    22015149.421    22015145.152                    22015149.031    22015148.769   115690448.408 8 114638734.477 8  86392229.262 9  93153328.940 8                  88645943.690 9  87519103.870 9        74.489          73.843          55.638          59.995                          57.075          56.365          51.250          52.000          55.750          53.000                          56.750          59.250
R19  24427970.123    24427972.605    24427968.694    24427970.879                   130673185.046 6 130673181.056 6 101634694.840 5 101634689.839 5                      2546.320        2546.320        1980.426        1980.440                          39.500          38.500          35.750          35.250
R01  19189761.063    19189761.061    19189762.136    19189762.688                   102580270.833 8 102580305.839 8  79784697.762 7  79784698.776 7                        70.436          70.436          54.776          54.763                          51.500          50.250          45.000          43.750
G09  24128355.174    24128354.754                    24128355.666    24128355.507    24128354.590   126795414.968 7 126795405.962 7                  98801627.505 7  98801629.507 7  94684897.941 8     -3218.251       -3218.251                       -2507.720       -2507.705       -2403.237          42.750          42.000                          42.000          44.000          49.000
G27  25109875.302    25109875.995                    25109876.181    25109875.999    25109874.557   131953295.920 6 131953294.932 5                 102820750.298 5 102820753.284 6  98536553.328 7       -32.797         -32.797                         -25.561         -25.506         -24.497          41.000          32.250                          32.250          38.750          45.000
G05  20819082.867    20819082.498                    20819079.890    20819079.943                   109405050.532 8 109405049.535 8                  85250694.951 8  85250690.957 8                      -625.012        -625.012                        -487.040        -487.042                          50.750          51.000                          51.000          51.000
G30  20432124.600    20432123.967                    20432124.895    20432124.824    20432122.899   107371577.630 8 107371573.632 8                  83666170.886 8  83666178.887 8  80180083.112 9      -241.552        -241.552                        -188.228        -188.229        -180.381          51.750          52.500                          52.500          53.000          57.750
R02  22347051.535    22347051.136    22347051.921    22347052.061                   119248181.156 8 119248175.153 8  92748610.663 7  92748575.655 7                      3803.394        3803.394        2958.187        2958.206                          51.250          50.750          46.250          44.750
E09  22361034.605    22361034.982    22361034.066    22361033.742    22361033.676   117508089.707 8  87749559.232 9  95379948.391 8  90038675.218 9  88894109.865 9     -1525.401       -1139.075       -1238.128       -1168.790       -1153.935          52.250          54.250          52.500          55.750          57.750
G08  24911322.223    24911322.527                    24911324.244    24911324.661    24911321.900   130909890.417 6 130909891.410 5                 102007709.092 5 102007708.066 6  97757385.509 7      1428.337        1428.337                        1113.083        1113.097        1066.701          38.000          34.500                          34.500          41.250          46.500
E13  28560930.108    28560929.781    28560930.084    28560928.349    28560928.290   150088755.74515 112079225.29515 121825246.68915 115003033.59115 113541126.09115      1189.943         888.630         965.887         911.875         900.244          33.500          34.500          32.250          30.250          33.250
S25  39879138.026                   209565829.457 7                      -200.841                          46.250
E05  23767661.063    23767661.639    23767658.840    23767660.457    23767660.348   124899912.742 8  93269458.507 9 101379841.690 8  95702572.019 9  94486015.898 9      1019.796         761.545         827.764         781.409         771.478          52.000          55.000          52.250          56.000          58.500
S26  40228215.009                   211400753.789 6                        68.582                          39.500
R08  20868107.876    20868108.270    20868108.898    20868108.659                   111747905.055 8 111747818.052 8  86914981.630 8  86915012.626 8                     -2922.704       -2922.704       -2273.223       -2273.211                          52.000          51.250          50.000          49.000
R18  23490941.372    23490941.204    23490943.345    23490941.772                   125396248.942 8 125396232.946 7  97530413.199 7  97530400.207 6                      -324.453        -324.453        -252.375        -252.372                          48.000          47.000          42.000          41.000
C10                  38252765.810                    38252759.887    38252761.080                                                   199192197.317 7                 161860025.369 7 154028076.875 7                                                        64.820                          52.548          50.108                                                          44.000                          46.000          46.500
S23  38593325.027    38593326.062   202809798.463 7 151448366.803 7         3.379           2.482          47.250          47.250
E03  27400780.883    27400781.511    27400779.743    27400780.775    27400780.613   143992100.794 7 107526576.082 7 116876707.857 7 110331611.091 7 108929088.224 8      2632.358        1965.724        2136.642        2016.994        1991.359          45.750          44.000          43.000          47.500          49.000
E25  28504956.557    28504957.463    28504954.245    28504955.373    28504955.731   149794557.284 7 111859574.964 7 121586492.756 6 114777651.292 7 113318615.764 7      3264.300        2437.632        2649.600        2501.221        2469.422          45.750          43.750          40.750          43.500          46.500
C07                  39703699.039                    39703690.784    39703692.120                                                   206747495.476 7                 167999362.362 6 159870365.241 7                                                      -592.193                        -481.154        -457.800                                                          43.000                          41.750          43.750
G07  21775471.301    21775471.108                    21775468.831    21775468.373                   114430915.772 8 114430920.772 8                  89166963.978 8  89166960.982 8                     -1989.966       -1989.966                       -1550.638       -1550.642                          49.000          49.500                          49.500          48.250
C05                  39983061.239                    39983057.452    39983055.839                                                   208202304.269 6                 169181414.526 7 160995202.457 7                                                        -1.643                          -1.216          -1.282                                                          40.750                          42.250          43.500
S28  41262416.969    41262423.850   216835530.541 6 161922599.029 6         1.402           1.078          38.750          40.250
E01  28004722.958    28004723.044    28004722.688    28004721.739    28004721.673   147165937.784 7 109896583.885 7 119452806.861 7 112763451.846 7 111330015.009 7     -2784.140       -2079.014       -2259.832       -2133.282       -2106.150          45.750          43.500          42.500          45.000          47.000
R09  23543881.813    23543881.694    23543882.430    23543881.900    23543868.685   125723287.391 7 125723104.383 7  97784774.596 7  97784646.603 6  94399834.518 7     -4168.723       -4168.723       -3242.296       -3242.326       -3130.092          47.750          47.000          43.000          41.500          43.500
I09  41097840.450   161276796.945 5      -639.620          35.250
I03  41444107.419   162635620.556 7       -45.201          42.750
I02  37500159.366   147158740.370 7       330.271          42.250
I06  38312044.467   150344552.270 7        26.300          42.500
I04  41226924.369   161783318.726 6      -335.816          36.250
C02                                                                                                                                                                                                                                                                                                         2.136                                                                                                          30.250
> 2020  6 25  0  4  0.0000000  0 53
S44  40944246.022                   215163515.285 6                        92.552                          41.500
C23  23582459.768    23582461.570    23582453.902    23582450.876                    23582453.340    23582453.262   123926620.449 8 122800084.510 8  92542668.793 8  99785135.091 8                  94956816.455 9  93749736.520 9     -2260.191       -2239.646       -1687.808       -1819.869                       -1731.822       -1709.827          49.250          50.250          53.500          52.000                          54.250          56.500
R10  20483408.183    20483408.234                                                   109188208.204 8 109188112.216 8                                                     -2751.263       -2751.263                                                          52.750          52.000
C40  38276157.580    38276159.696    38276155.977    38276155.394                    38276155.648    38276155.319   201142685.241 7 199314014.566 8 150203900.733 8 161958969.347 8                 154122264.749 8 152163094.635 8      -334.342        -331.310        -249.705        -269.235                        -256.204        -252.954          47.500          48.750          50.000          48.750                          50.500          53.250
R17  24080741.428    24080743.519    24080747.142    24080745.455                   128860753.332 7 128860884.333 7 100225170.531 6 100225167.527 6                     -2980.926       -2980.926       -2318.512       -2318.495                          45.000          44.000          40.500          40.250
S36  38389632.291    38389635.670   201740200.823 7 150649124.906 7         -.595           -.494          47.500          45.000
E04  28612139.765    28612139.493    28612139.223    28612138.768    28612138.569   150357862.149 7 112280237.048 7 122043726.451 7 115209286.750 7 113744761.031 7     -2724.505       -2034.558       -2211.492       -2087.607       -2061.069          44.500          42.250          42.500          45.500          47.000
E31  24394220.015    24394220.999    24394217.793    24394220.106    24394219.833   128192717.815 8  95728192.937 8 104052379.726 8  98225447.853 9  96976822.031 9      -669.756        -500.149        -543.631        -513.188        -506.665          52.250          53.750          51.500          55.500          57.500
E15  27486651.033    27486652.640    27486650.748    27486651.450    27486651.575   144443361.243 7 107863528.584 7 117242966.220 7 110677360.267 7 109270444.054 7     -1089.522        -813.635        -884.359        -834.851        -824.232          44.000          43.250          43.500          45.500          47.500
C12                  26855973.879                    26855965.800    26855967.340                                                   139846087.970 4                 113636377.843 5 108137813.662 5                                                       268.041                         217.613         207.237                                                          29.750                          31.750          33.000
S27  39500028.174                   207574030.299 6                        -1.415                          38.250
G13  21810501.058    21810500.892                    21810498.622                                   114614994.089 8 114614985.097 6                  89310385.604 6                                      2482.114        2482.114                        1934.082                                          50.250          39.250                          39.250
G15  24289823.035    24289822.647                    24289820.487    24289819.128                   127643732.581 7 127643884.584 4                  99462769.112 4  99462770.098 6                      3470.020        3470.020                        2703.880        2703.912                          43.750          29.500                          29.500          40.500
G28  22516288.433    22516288.539                    22516285.785                                   118323917.773 7 118323902.788 5                  92200445.252 5                                      2922.685        2922.685                        2277.402                                          47.250          35.750                          35.750
G18  24730548.510    24730548.786    24730548.143    24730546.835    24730546.803    24730549.388   129959913.255 7 129959907.264 4 129959955.253 7 101267461.655 4 101267458.642 7  97047979.781 7      1152.828        1152.828        1152.731         898.233         898.274         860.846          44.500          28.500          44.500          28.500          42.750          46.250
R12  22919767.815    22919768.881    22919769.332    22919769.772                   122433301.798 8 122433309.792 8  95225901.585 7  95225916.587 6                      4258.136        4258.136        3311.870        3311.892                          50.000          49.250          42.000          41.250
C19  24140274.974    24140277.262    24140274.158    24140270.013                    24140273.496    24140273.402   126858004.810 7 125704857.350 8  94731662.796 8 102145417.416 8                  97202912.974 8  95967307.779 8      2723.674        2698.941        2033.916        2193.102                        2086.946        2060.438          47.250          49.000          50.250          49.000                          50.500          53.250
C32  23933042.058    23933043.310    23933045.482    23933042.848                    23933044.594    23933044.526   125768973.786 8 124625844.489 8  93918465.408 8 101268597.165 8                  96368500.396 8  95143475.297 9     -2813.326       -2787.740       -2100.823       -2265.242                       -2155.661       -2128.249          49.000          49.500          52.250          51.500                          52.500          55.000
E24  22894765.843    22894777.302    22894757.550    22894776.052    22894775.992   120312804.477 8  89843990.991 8  97656510.495 8  92187745.615 9  91015867.440 9      2169.413        1620.003        1760.870        1662.262        1641.135          52.750          53.500          51.500          54.500          56.750
R11  19634347.031    19634347.792    19634348.734    19634348.012                   104920022.333 9 104920041.340 9  81604461.087 8  81604463.090 8                      1821.846        1821.846        1416.974        1416.982                          54.750          54.000          49.500          48.750
C37  22026763.986    22026765.070    22026767.436    22026765.917                    22026767.110    22026766.864   115751463.490 8 114699147.905 8  86437800.092 9  93202475.128 9                  88692689.872 9  87565237.375 9       743.241         736.453         554.981         598.407                         569.461         562.229          50.500          51.750          56.500          54.000                          57.000          59.500
C20  22014771.236    22014773.245    22014767.149    22014762.759                    22014766.643    22014766.422   115688438.963 8 114636743.299 8  86390728.702 9  93151710.943 8                  88644403.984 9  87517583.738 9        59.483          58.953          44.425          47.895                          45.563          44.997          51.250          51.750          55.750          53.250                          57.000          59.250
R19  24413742.010    24413744.639    24413745.485    24413745.053                   130597079.100 6 130597075.104 6 101575501.287 6 101575496.302 6                      2527.376        2527.376        1965.731        1965.711                          37.000          37.750          38.750          37.000
R01  19189425.482    19189425.400    19189426.613    19189427.335                   102578477.487 8 102578512.493 8  79783302.945 7  79783303.952 7                        49.145          49.145          38.233          38.223                          51.250          49.750          44.750          43.750
G09  24146739.302    24146739.308                    24146740.411    24146740.070    24146738.719   126892024.847 7 126892015.852 7                  98876907.913 7  98876909.920 7  94757041.665 8     -3222.361       -3222.361                       -2510.956       -2510.960       -2406.334          43.750          42.750                          42.750          45.250          49.000
G27  25110119.396    25110119.132                    25110119.337    25110119.375    25110117.486   131954572.851 7 131954571.855 5                 102821745.292 5 102821748.299 6  98537506.865 7       -52.287         -52.287                         -40.708         -40.737         -39.042          42.500          34.000                          34.000          40.000          45.000
G05  20822707.331    20822707.393                    20822704.853    20822704.982                   109424099.642 8 109424098.645 8                  85265538.408 8  85265534.409 8                      -644.972        -644.972                        -502.564        -502.558                          51.000          51.000                          51.000          50.750
G30  20433545.908    20433545.522                    20433546.386    20433546.173    20433544.387   107379047.562 8 107379043.559 8                  83671991.610 8  83671999.608 8  80185661.307 9      -256.433        -256.433                        -199.826        -199.825        -191.495          52.250          52.750                          52.750          52.750          57.750
R02  22325680.688    22325680.730    22325680.928    22325680.850                   119134144.513 8 119134138.503 8  92659915.515 7  92659880.511 7                      3798.997        3798.997        2954.787        2954.782                          51.750          51.000          44.250          43.500
E09  22369765.751    22369765.934    22369764.857    22369764.738    22369764.646   117553971.239 8  87783821.405 9  95417189.890 8  90073831.190 9  88928818.938 9     -1533.414       -1145.097       -1244.679       -1174.974       -1160.041          52.500          54.500          52.500          55.500          57.750
G08  24903212.736    24903213.514                    24903214.148    24903214.541    24903211.402   130867276.791 6 130867277.792 5                 101974503.664 5 101974502.672 6  97725563.667 7      1412.693        1412.693                        1100.804        1100.838        1054.962          39.000          35.750                          35.750          39.000          45.000
E13  28554173.590    28554174.206    28554173.850    28554173.588    28554172.978   150053256.186 4 112052715.856 5 121796432.090 5 114975832.552 5 113514270.839 5      1176.951         878.562         954.980         901.569         890.058          28.250          34.250          33.750          33.000          35.250
S25  39880311.464                   209571854.554 7                      -201.060                          46.500
E05  23761862.079    23761862.547    23761859.773    23761861.360    23761861.298   124869438.503 8  93246701.769 9 101355106.107 8  95679221.626 9  94462962.332 9      1011.855         755.615         821.319         775.325         765.472          51.750          55.000          52.250          56.250          58.500
S26  40227824.841                   211398690.822 6                        68.776                          39.750
R08  20884523.442    20884523.925    20884523.753    20884524.405                   111835810.292 8 111835723.294 8  86983352.362 8  86983383.363 8                     -2937.693       -2937.693       -2284.867       -2284.858                          53.000          52.000          50.000          49.000
R18  23492836.475    23492836.344    23492837.645    23492837.133                   125406367.846 7 125406351.840 7  97538283.471 7  97538270.471 6                      -350.191        -350.191        -272.342        -272.334                          47.750          46.750          42.000          41.000
C10                  38252406.176                    38252400.122    38252401.619                                                   199190323.879 7                 161858503.046 7 154026628.241 7                                                        60.229                          48.985          46.510                                                          44.500                          46.000          46.250
S23  38593305.672    38593306.955   202809697.654 7 151448291.736 7         3.430           2.589          47.250          47.250
E03  27385756.135    27385757.279    27385755.738    27385756.335    27385756.121   143913146.577 7 107467616.792 7 116812621.653 7 110271113.724 7 108869359.895 8      2631.216        1964.898        2135.778        2016.178        1990.541          45.000          45.000          43.000          47.750          49.500
E25  28486321.753    28486323.352    28486320.151    28486321.537    28486321.942   149696636.095 7 111786452.024 7 121507011.298 6 114702620.799 7 113244539.042 7      3263.870        2437.274        2649.221        2500.847        2469.065          45.250          43.750          41.250          43.250          46.000
C07                  39707120.839                    39707112.274    39707113.905                                                   206765313.367 7                 168013840.856 7 159884143.152 7                                                      -595.894                        -484.131        -460.645                                                          43.000                          42.250          44.000
G07  21786857.701    21786857.926                    21786855.467    21786855.551                   114490753.870 8 114490758.871 8                  89213591.065 8  89213588.064 8                     -1999.314       -1999.314                       -1557.912       -1557.918                          48.750          50.000                          50.000          48.000
C05                  39983069.085                    39983065.944    39983064.479                                                   208202348.328 6                 169181450.321 6 160995236.522 7                                                        -1.505                          -1.109          -1.138                                                          40.750                          41.750          43.500
S28  41262410.260    41262417.027   216835494.390 6 161922572.097 6         1.434           1.182          39.000          40.500
E01  28020631.036    28020631.291    28020631.556    28020629.851    28020629.983   147249536.717 7 109959011.638 7 119520663.095 7 112827508.142 7 111393257.032 7     -2789.176       -2082.804       -2263.916       -2137.144       -2109.972          45.750          43.250          42.000          44.750          47.000
R09  23567312.754    23567312.858    23567313.393    23567312.680    23567299.259   125848406.078 7 125848223.085 7  97882089.102 7  97881961.103 7  94493780.486 7     -4172.531       -4172.531       -3245.278       -3245.290       -3132.965          47.500          47.250          43.000          42.000          44.250
I09  41102730.025   161295978.225 5      -639.047          35.250
I03  41444453.534   162636977.709 7       -45.149          42.750
I02  37497640.225   147148853.607 7       328.805          42.250
I04  41229499.079   161793414.05516      -337.060          37.000
I06  38311843.155   150343764.664 7        26.196          42.000
C02                                                                                                                                                                                                                                                                                                         2.232                                                                                                          30.750
> 2020  6 25  0  4 30.0000000  0 53
S44  40943717.976                   215160738.608 6                        92.631                          40.750
C23  23595389.998    23595391.521    23595383.836    23595380.616                    23595383.323    23595383.084   123994567.389 8 122867413.758 8  92593408.396 8  99839845.626 8                  95008879.701 9  93801137.945 9     -2269.622       -2249.025       -1694.847       -1827.541                       -1739.050       -1716.956          49.250          49.750          52.750          52.000                          54.000          56.250
R10  20498940.350    20498940.477                                                   109271004.982 8 109270908.987 8                                                     -2768.489       -2768.489                                                          53.000          52.000
C40  38278081.823    38278084.323    38278080.130    38278079.508                    38278079.788    38278079.422   201152796.869 7 199324034.272 8 150211451.635 8 161967111.190 8                 154130012.621 8 152170744.020 8      -339.695        -336.695        -253.760        -273.576                        -260.308        -257.040          47.250          48.750          50.000          48.500                          50.500          53.000
R17  24097496.267    24097495.987    24097495.669    24097497.636                   128950398.965 7 128950529.962 7 100294894.885 6 100294891.891 6                     -2995.385       -2995.385       -2329.709       -2329.718                          45.750          45.250          40.250          39.000
S36  38389637.116    38389640.187   201740222.469 7 150649144.953 8         -.681           -.538          47.000          49.250
E04  28627699.147    28627698.987    28627699.308    28627698.016    28627697.888   150439626.951 7 112341295.193 6 122110093.985 6 115271937.730 7 113806615.605 7     -2726.469       -2036.008       -2213.066       -2089.127       -2062.564          43.000          41.250          41.250          43.500          45.250
E31  24398082.775    24398083.933    24398080.622    24398082.959    24398082.742   128213017.560 8  95743351.839 8 104068856.795 8  98241002.205 9  96992178.658 9      -683.497        -510.391        -554.775        -523.707        -517.045          52.250          53.750          51.250          55.500          57.500
E15  27492909.627    27492911.280    27492908.784    27492910.195    27492909.983   144476249.641 7 107888088.118 7 117269661.378 7 110702560.488 7 109295323.941 8     -1103.025        -823.653        -895.285        -845.126        -834.385          44.750          44.750          42.250          46.250          48.250
C12                  26854475.207                    26854468.357    26854469.979                                                   139838294.810 4                 113630044.860 5 108131787.148 5                                                       251.437                         204.352         194.411                                                          28.000                          31.000          30.500
S27  39500035.710                   207574066.766 6                        -1.518                          38.000
G13  21796353.212    21796352.619                    21796350.979                                   114540646.198 8 114540637.204 6                  89252452.185 6                                      2474.459        2474.459                        1928.161                                          50.750          39.250                          39.250
G15  24270019.707    24270020.068                    24270017.283    24270017.119                   127539669.629 7 127539821.637 4                  99381681.084 4  99381682.089 6                      3467.506        3467.506                        2701.994        2701.928                          43.250          29.000                          29.000          39.750
G28  22499633.728    22499632.991                    22499630.847                                   118236393.596 8 118236378.598 6                  92132244.624 6                                      2912.229        2912.229                        2269.217                                          48.000          36.500                          36.500
G18  24724018.691    24724018.644    24724018.253    24724016.677    24724017.589    24724019.765   129925599.425 7 129925593.425 4 129925641.412 7 101240723.633 4 101240720.616 7  97022355.865 7      1134.693        1134.693        1134.892         884.193         884.192         847.355          43.000          26.500          43.250          26.500          42.000          46.000
R12  22895875.416    22895875.042    22895876.097    22895876.344                   122305666.588 8 122305674.589 8  95126629.811 7  95126644.812 7                      4250.922        4250.922        3306.298        3306.298                          49.500          49.000          42.750          42.000
C19  24124745.944    24124748.594    24124745.273    24124740.924                    24124744.575    24124744.401   126776399.732 7 125623994.124 8  94670723.952 8 102079709.434 8                  97140384.411 8  95905574.074 8      2716.641        2691.903        2028.654        2187.427                        2081.574        2055.126          46.750          49.000          50.250          48.750                          50.500          53.000
C32  23949127.659    23949128.981    23949130.734    23949128.282                    23949130.095    23949130.024   125853503.799 8 124709606.031 8  93981588.453 8 101336660.281 8                  96433270.136 8  95207421.694 9     -2822.037       -2796.375       -2107.325       -2272.277                       -2162.411       -2134.878          49.000          50.250          51.750          51.000                          52.250          55.000
E24  22882411.888    22882423.514    22882403.788    22882422.197    22882422.181   120247884.667 8  89795511.914 8  97603815.844 8  92138001.867 9  90966756.027 9      2158.618        1611.952        1752.131        1654.006        1632.982          51.750          53.250          51.750          54.500          56.750
R11  19624182.650    19624183.507    19624183.729    19624183.595                   104865706.955 9 104865725.953 8  81562215.805 8  81562217.810 8                      1799.243        1799.243        1399.413        1399.415                          54.250          53.500          49.750          49.000
C37  22022563.147    22022564.502    22022566.655    22022564.937                    22022566.221    22022565.975   115729387.606 8 114677272.710 8  86421314.857 9  93184699.744 8                  88675774.590 9  87548537.118 9       728.551         721.925         544.047         586.614                         558.206         551.123          50.500          51.500          56.500          53.750                          57.000          59.250
C20  22014474.455    22014476.601    22014470.420    22014466.177                    22014470.028    22014469.808   115686880.542 8 114635199.039 8  86389564.945 9  93150456.112 8                  88643209.863 9  87516404.800 9        44.408          44.046          33.177          35.760                          34.027          33.605          51.250          52.250          55.750          53.750                          57.000          59.250
R19  24399625.994    24399621.828    24399623.497    24399622.562                   130521538.544 6 130521534.574 5 101516747.581 6 101516742.592 6                      2508.780        2508.780        1951.261        1951.294                          36.750          35.500          38.750          37.500
R01  19189210.075    19189209.933    19189210.645    19189211.211                   102577322.753 8 102577357.756 8  79782404.815 7  79782405.828 7                        27.848          27.848          21.667          21.650                          51.500          49.750          45.000          44.250
G09  24165146.863    24165147.078                    24165148.208    24165147.574    24165146.694   126988759.533 7 126988750.542 7                  98952285.590 7  98952287.590 7  94829278.596 8     -3226.497       -3226.497                       -2514.111       -2514.107       -2409.345          42.000          42.000                          42.000          44.500          48.750
G27  25110473.171    25110473.030                    25110473.674    25110473.023    25110471.415   131956433.061 6 131956432.060 5                 102823194.795 5 102823197.797 6  98538895.975 7       -71.679         -71.679                         -55.806         -55.866         -53.529          41.250          32.750                          32.750          39.000          45.500
G05  20826446.469    20826446.117                    20826443.626    20826443.730                   109443746.930 8 109443745.935 8                  85280847.979 8  85280843.986 8                      -664.834        -664.834                        -518.044        -518.048                          51.250          50.750                          50.750          51.000
G30  20435052.193    20435051.851                    20435052.794    20435052.651    20435050.729   107386963.619 8 107386959.624 8                  83678159.977 8  83678167.976 8  80191572.659 9      -271.269        -271.269                        -211.361        -211.369        -202.560          52.000          52.250                          52.250          53.000          58.000
R02  22304335.763    22304335.576    22304335.763    22304335.989                   119020241.639 8 119020235.640 8  92571324.427 7  92571289.428 7                      3794.501        3794.501        2951.290        2951.286                          52.250          51.500          46.000          44.750
E09  22378542.891    22378542.958    22378541.963    22378541.851    22378541.713   117600094.969 8  87818264.450 9  95454627.982 8  90109172.747 9  88963711.238 9     -1541.499       -1151.121       -1251.220       -1181.150       -1166.136          52.500          54.250          52.500          55.500          57.750
G08  24895193.473    24895192.907                    24895194.978    24895194.197    24895191.280   130825129.993 6 130825130.995 5                 101941662.032 5 101941661.035 6  97694090.439 7      1396.985        1396.985                        1088.613        1088.574        1043.238          38.000          35.750                          35.750          41.250          43.500
E13  28547495.933    28547494.953    28547495.783    28547494.330    28547494.501   150018158.952 4 112026506.878 6 121767944.122 5 114948939.926 5 113487720.059 6      1163.661         868.856         944.405         891.527         880.184          28.750          36.250          35.250          35.750          37.750
S25  39881482.216                   209577888.800 7                      -201.140                          45.500
E05  23756108.455    23756108.937    23756106.091    23756107.818    23756107.684   124839203.020 8  93224123.325 9 101330564.325 8  95656054.182 9  94440089.388 9      1003.849         749.650         814.833         769.201         759.429          52.000          55.250          52.500          56.250          58.750
S26  40227432.788                   211396622.420 6                        69.012                          39.000
R08  20901023.608    20901023.629    20901023.824    20901023.620                   111924163.465 8 111924076.474 8  87052071.496 8  87052102.496 8                     -2952.501       -2952.501       -2296.407       -2296.390                          53.250          52.500          50.000          48.750
R18  23494875.611    23494876.941    23494875.880    23494878.090                   125417259.751 7 125417243.751 7  97546754.984 6  97546741.971 6                      -375.985        -375.985        -292.455        -292.459                          46.750          46.750          40.250          41.000
C10                  38252071.641                    38252066.322    38252067.781                                                   199188585.762 7                 161857090.681 7 154025284.218 7                                                        55.713                          45.405          43.088                                                          44.750                          46.250          46.500
S23  38593287.402    38593287.497   202809596.231 7 151448216.118 7         3.402           2.574          46.500          47.500
E03  27370736.939    27370738.650    27370736.093    27370737.474    27370737.431   143834222.641 7 107408680.116 7 116748560.045 7 110210639.582 7 108809654.482 8      2630.318        1964.197        2135.001        2015.443        1989.821          44.750          45.750          43.500          47.500          49.500
E25  28467690.027    28467691.639    28467688.718    28467690.146    28467690.258   149598726.129 7 111713337.471 7 121427538.944 6 114627598.896 7 113170470.822 7      3263.483        2436.984        2648.899        2500.575        2468.794          45.250          42.750          40.750          43.250          45.750
C07                  39710562.789                    39710554.333    39710556.030                                                   206783236.789 7                 168028405.100 7 159898002.693 7                                                      -599.230                        -486.815        -463.374                                                          43.000                          42.000          43.500
G07  21798298.294    21798298.201                    21798295.764    21798295.936                   114550872.717 8 114550877.717 8                  89260436.912 8  89260433.917 7                     -2008.639       -2008.639                       -1565.166       -1565.170                          49.000          49.750                          49.750          47.750
C05                  39983077.275                    39983073.704    39983071.849                                                   208202389.372 6                 169181483.705 7 160995268.298 7                                                        -1.233                          -1.022          -1.139                                                          41.000                          42.000          43.750
S28  41262403.928    41262409.935   216835458.843 6 161922545.595 6         1.369           1.030          38.750          40.000
E01  28036568.774    28036568.897    28036567.855    28036567.283    28036567.365   147333288.068 7 110021553.232 7 119588643.106 6 112891681.244 7 111456614.378 7     -2794.300       -2086.708       -2268.166       -2141.124       -2113.905          45.500          43.500          40.750          45.000          47.250
R09  23590765.176    23590764.751    23590764.045    23590764.512    23590751.361   125973637.025 7 125973454.021 7  97979490.913 7  97979362.905 6  94587810.697 7     -4176.230       -4176.230       -3248.145       -3248.140       -3135.714          47.750          46.750          42.000          40.500          44.000
I09  41107612.610   161315144.960 5      -638.679          35.000
I03  41444799.260   162638333.370 7       -45.191          43.000
I02  37495132.756   147139013.302 7       327.263          42.500
I06  38311643.731   150342980.402 6        26.127          41.750
I04  41232080.400   161803541.98116      -338.290          36.500
C02                                                                                                                                                                                                                                                                                                         2.406                                                                                                          30.750
> 2020  6 25  0  5  0.0000000  0 53
S44  40943190.002                   215157964.993 6                        92.405                          40.250
C23  23608373.384    23608375.390    23608367.431    23608364.379                    23608366.899    23608366.700   124062796.849 8 122935022.950 8  92644358.973 8  99894783.636 8                  95061159.419 8  93852753.093 9     -2278.970       -2258.294       -1701.846       -1835.038                       -1746.263       -1724.052          49.000          49.750          53.000          52.500                          53.750          56.500
R10  20514569.450    20514569.666                                                   109354316.137 8 109354220.146 8                                                     -2785.594       -2785.594                                                          53.000          52.000
C40  38280037.085    38280038.782    38280035.104    38280034.552                    38280034.807    38280034.507   201163070.743 7 199334214.736 8 150219123.676 8 161975383.657 8                 154137884.814 8 152178516.137 8      -345.178        -342.017        -257.759        -277.933                        -264.513        -261.124          47.500          48.750          50.250          48.500                          50.750          53.000
R17  24114329.396    24114329.957    24114330.356    24114331.154                   129040476.771 8 129040607.762 8 100364955.393 6 100364952.400 6                     -3009.686       -3009.686       -2340.885       -2340.904                          48.750          48.000          40.500          39.750
S36  38389641.540    38389644.842   201740243.482 7 150649161.206 8         -.815           -.534          46.500          49.250
E04  28643269.622    28643269.525    28643269.119    28643268.021    28643268.352   150521450.489 6 112402397.218 7 122176509.225 6 115334633.720 7 113868514.612 7     -2728.339       -2037.450       -2214.619       -2090.596       -2064.026          40.250          42.250          39.750          43.500          45.500
E31  24402024.061    24402025.009    24402021.700    24402024.045    24402023.837   128233728.146 8  95758817.538 8 104085667.335 8  98256871.356 9  97007846.082 9      -697.153        -520.592        -565.860        -534.164        -527.374          52.000          53.750          51.500          55.500          57.750
E15  27499244.018    27499246.358    27499243.664    27499245.127    27499244.964   144509540.212 7 107912947.990 7 117296682.943 7 110728068.868 7 109320508.063 7     -1116.455        -833.772        -906.263        -855.508        -844.640          44.000          44.250          42.500          45.500          47.750
S27  39500042.489                   207574103.475 6                        -1.260                          38.250
G13  21782249.231    21782248.698                    21782246.174                                   114466528.087 8 114466519.105 6                  89194697.833 6                                      2466.764        2466.764                        1922.145                                          50.500          39.250                          39.250
G15  24250232.166    24250231.974                    24250228.795    24250227.949                   127435683.267 7 127435835.271 4                  99300652.757 4  99300653.774 6                      3464.819        3464.819                        2699.959        2699.910                          43.500          27.750                          27.750          39.750
G28  22483037.741    22483037.501                    22483035.261                                   118149183.269 8 118149168.283 6                  92064288.526 6                                      2901.735        2901.735                        2261.055                                          48.250          36.250                          36.250
G18  24717591.712    24717591.867    24717591.930    24717591.579    24717589.794    24717593.024   129891826.906 7 129891820.918 4 129891868.894 7 101214407.401 4 101214404.407 7  96997136.174 7      1116.706        1116.706        1116.838         870.046         870.060         833.813          42.750          27.000          44.000          27.000          42.000          46.000
R12  22872022.697    22872022.502    22872023.749    22872024.227                   122178250.328 8 122178258.324 8  95027528.314 7  95027543.304 7                      4243.511        4243.511        3300.523        3300.544                          50.500          50.000          44.250          43.250
C19  24109257.429    24109260.001    24109256.723    24109252.406                    24109256.332    24109255.968   126695007.250 7 125543341.582 8  94609943.867 8 102014172.655 8                  97078018.761 8  95844001.208 8      2709.509        2684.882        2023.300        2181.681                        2076.131        2049.721          47.500          49.250          50.500          48.750                          50.750          53.250
C32  23965262.961    23965264.214    23965265.973    23965263.464                    23965265.526    23965265.260   125938294.842 8 124793626.255 8  94044906.438 8 101404933.591 8                  96498239.891 8  95271565.561 9     -2830.707       -2804.951       -2113.832       -2279.276                       -2168.980       -2141.401          49.250          49.750          52.000          50.750                          52.500          55.000
E24  22870119.763    22870131.233    22870111.588    22870130.066    22870129.928   120183288.588 8  89747274.588 8  97551383.965 8  92088506.176 9  90917889.519 9      2147.803        1603.890        1743.359        1645.726        1624.811          53.000          53.500          51.750          54.500          56.750
R11  19614145.885    19614145.896    19614146.115    19614146.318                   104812070.174 9 104812089.180 8  81520498.328 8  81520500.323 8                      1776.614        1776.614        1381.776        1381.791                          54.000          53.500          50.250          49.500
C37  22018445.634    22018447.068    22018449.221    22018447.582                    22018448.770    22018448.543   115707750.590 8 114655832.406 8  86405157.355 9  93167277.736 9                  88659195.585 9  87532168.864 9       713.957         707.429         533.132         574.871                         547.031         540.087          50.500          51.750          56.500          54.000                          57.000          59.500
C20  22014264.060    22014265.815    22014259.823    22014255.561                    22014259.380    22014259.224   115685773.746 8 114634102.319 8  86388738.446 9  93149564.930 8                  88642361.807 9  87515567.521 9        29.361          29.092          21.945          23.648                          22.509          22.233          51.500          52.000          55.750          53.750                          57.000          59.000
R19  24385611.576    24385608.415    24385609.753    24385607.878                   130446567.359 6 130446563.364 6 101458436.667 6 101458431.687 6                      2489.545        2489.545        1936.318        1936.292                          36.750          36.500          38.500          37.500
R01  19189113.145    19189113.347    19189115.011    19189114.940                   102576807.485 8 102576842.493 8  79782004.058 7  79782005.061 7                         6.490           6.490           5.060           5.056                          51.500          50.250          44.750          44.000
G09  24183578.683    24183578.890                    24183579.807    24183580.323    24183578.427   127085618.211 7 127085609.214 7                  99027759.867 7  99027761.863 7  94901608.105 8     -3230.750       -3230.750                       -2517.392       -2517.384       -2412.489          43.250          42.500                          42.500          44.750          48.750
G27  25110937.362    25110937.705                    25110938.479    25110938.487    25110936.565   131958876.801 6 131958875.799 5                 102825099.008 5 102825101.994 6  98540720.843 7       -91.354         -91.354                         -71.199         -71.203         -68.236          39.750          30.000                          30.000          38.750          44.750
G05  20830298.649    20830298.655                    20830296.016    20830295.974                   109463991.926 8 109463990.924 8                  85296623.288 8  85296619.295 8                      -684.767        -684.767                        -533.579        -533.586                          51.250          51.250                          51.250          50.750
G30  20436643.456    20436643.067                    20436643.876    20436643.860    20436641.881   107395325.072 8 107395321.078 8                  83684675.400 8  83684683.403 8  80197816.606 9      -286.143        -286.143                        -222.985        -222.985        -213.693          51.750          52.500                          52.500          53.250          58.000
R02  22283015.629    22283015.671    22283015.868    22283016.210                   118906474.994 8 118906468.994 8  92482839.286 7  92482804.281 7                      3789.912        3789.912        2947.723        2947.735                          52.250          51.500          45.500          45.000
E09  22387365.996    22387366.049    22387364.887    22387364.937    22387364.861   117646460.816 8  87852888.286 9  95492262.587 8  90144699.816 9  88998786.690 9     -1549.573       -1157.164       -1257.791       -1187.355       -1172.260          52.250          54.000          52.000          55.750          58.000
G08  24887262.345    24887262.177                    24887263.469    24887262.783    24887260.991   130783451.694 6 130783452.707 6                 101909185.469 6 101909184.469 6  97662967.061 7      1381.498        1381.498                        1076.534        1076.505        1031.650          41.250          37.750                          37.750          41.750          46.250
E13  28540893.845    28540893.961    28540893.240    28540891.780    28540892.549   149983465.15914 112000599.37516 121739783.73615 114922356.55515 113461474.58915      1149.831         858.547         933.109         880.936         869.739          28.250          37.250          32.750          32.000          35.750
S25  39882654.646                   209583911.739 7                      -200.514                          45.750
E05  23750400.439    23750400.976    23750398.200    23750399.749    23750399.667   124809207.194 8  93201723.843 9 101306217.065 8  95633070.364 9  94417397.738 9       995.864         743.639         808.325         763.035         753.340          52.500          55.000          52.250          56.250          58.500
S26  40227037.503                   211394551.079 6                        69.084                          39.500
R08  20917605.266    20917605.361    20917606.297    20917606.558                   112012962.673 8 112012875.676 8  87121137.544 8  87121168.541 8                     -2967.343       -2967.343       -2307.953       -2307.954                          53.250          52.250          49.500          48.750
R18  23497061.708    23497061.896    23497062.760    23497062.605                   125428923.630 7 125428907.637 7  97555826.879 7  97555813.888 6                      -401.740        -401.740        -312.475        -312.475                          46.500          46.250          42.250          40.500
C10                  38251764.080                    38251758.365    38251759.546                                                   199186982.593 7                 161855787.989 7 154024044.545 7                                                        51.181                          41.578          39.576                                                          45.000                          45.750          46.500
S23  38593267.263    38593268.047   202809493.976 7 151448139.642 7         3.423           2.591          47.000          47.500
E03  27355724.765    27355725.831    27355723.777    27355724.395    27355724.399   143755329.828 7 107349766.680 7 116684523.696 7 110150189.263 7 108749972.606 8      2629.224        1963.348        2134.063        2014.579        1988.967          45.500          46.250          43.750          46.500          49.250
E25  28449060.464    28449062.683    28449059.773    28449060.990    28449061.037   149500828.849 7 111640232.341 7 121348076.856 6 114552586.681 7 113096412.152 7      3263.134        2436.707        2648.584        2500.285        2468.488          44.750          42.500          40.500          43.000          45.500
C07                  39714025.157                    39714016.446    39714017.723                                                   206801265.503 7                 168043054.909 7 159911943.631 7                                                      -602.605                        -489.702        -465.937                                                          43.250                          42.000          44.000
G07  21809791.781    21809791.665                    21809789.241    21809788.954                   114611270.849 8 114611275.851 8                  89307500.369 8  89307497.373 7                     -2017.907       -2017.907                       -1572.429       -1572.450                          49.750          50.000                          50.000          47.500
C05                  39983084.134                    39983081.128    39983079.178                                                   208202427.498 6                 169181514.671 7 160995297.758 7                                                        -1.216                           -.918           -.872                                                          41.250                          42.000          44.000
S28  41262397.111    41262403.260   216835421.711 6 161922518.078 6         1.171           0.769          38.750          40.000
E01  28052535.015    28052534.983    28052533.867    28052533.497    28052533.288   147417190.131 7 110084207.355 7 119656745.408 6 112955969.830 7 111520085.736 7     -2799.251       -2090.361       -2272.124       -2144.877       -2117.615          45.500          43.750          41.000          44.000          46.500
R09  23614237.121    23614236.960    23614237.127    23614236.757    23614223.446   126098977.176 7 126098794.177 7  98076977.699 7  98076849.694 6  94681922.974 7     -4179.837       -4179.837       -3250.952       -3250.965       -3138.442          47.750          47.000          42.000          41.000          44.250
I09  41112492.288   161334296.976 5      -638.046          35.000
I03  41445144.669   162639687.371 7       -45.028          42.750
I02  37492636.614   147129219.514 7       325.709          42.250
I06  38311444.462   150342199.458 7        25.966          42.000
I04  41234670.875   161813751.85016      -339.238          37.000
C02                                                                                                                                                                                                                                                                                                         2.258                                                                                                          31.000
C12                                                                                                                                                                                                                                                                                       191.242         181.626                                                                                          29.250          31.000
> 2020  6 25  0  5 30.0000000  0 53
S44  40942662.730                   215155194.458 6                        92.234                          41.250
C23  23621410.751    23621411.650    23621404.438    23621401.379                    23621403.949    23621403.739   124131307.051 8 123002910.331 8  92695519.179 8  99949947.687 8                  95113654.246 9  93904580.611 9     -2288.345       -2267.541       -1708.833       -1842.582                       -1753.409       -1731.113          48.750          50.000          53.000          52.250                          54.000          56.250
R10  20530294.681    20530294.443                                                   109438138.524 8 109438042.536 8                                                     -2802.588       -2802.588                                                          53.250          52.500
C40  38282022.702    38282024.694    38282020.872    38282020.314                    38282020.666    38282020.345   201173506.454 7 199344555.571 8 150226916.583 8 161983786.444 8                 154145881.005 8 152186410.684 8      -350.571        -347.364        -261.779        -282.344                        -268.572        -265.176          47.500          48.750          50.000          48.250                          50.500          53.250
R17  24131242.455    24131242.813    24131245.056    24131243.676                   129130982.205 7 129131113.200 7 100435348.506 6 100435345.516 6                     -3023.907       -3023.907       -2351.959       -2351.927                          47.500          46.500          39.500          37.750
S36  38389646.172    38389649.560   201740270.156 7 150649178.789 8        -1.150           -.833          47.000          49.000
E04  28658850.753    28658851.146    28658850.698    28658849.816    28658849.914   150603332.189 7 112463542.650 7 122242971.652 6 115397374.243 7 113930457.584 7     -2730.388       -2038.969       -2216.284       -2092.138       -2065.554          44.250          43.500          41.500          45.750          47.500
E31  24406043.120    24406044.058    24406040.704    24406043.160    24406042.968   128254848.707 8  95774589.389 8 104102810.650 8  98273054.649 9  97023823.655 9      -710.889        -530.863        -577.019        -544.711        -537.783          52.000          53.750          51.250          55.500          57.500
E15  27505655.622    27505657.467    27505654.986    27505656.218    27505656.214   144543231.734 7 107938107.263 7 117324029.954 7 110753884.466 7 109345995.498 7     -1129.594        -843.558        -916.872        -865.540        -854.541          44.250          44.000          42.500          45.250          47.750
C12                  26851761.158                    26851757.220    26851758.153                                                   139824209.280 4                 113618572.313 5 108120869.705 5                                                       218.896                         177.991         169.577                                                          27.250                          33.250          32.750
S27  39500049.176                   207574141.243 6                        -1.328                          38.250
G13  21768188.866    21768188.153                    21768185.921                                   114392641.051 8 114392632.059 6                  89137123.522 6                                      2458.979        2458.979                        1916.082                                          50.000          39.000                          39.000
G15  24230458.502    24230459.126                    24230456.040    24230456.936                   127331774.743 7 127331926.748 4                  99219685.104 4  99219686.112 6                      3462.317        3462.317                        2697.927        2697.860                          44.500          28.750                          28.750          41.000
G28  22466502.467    22466502.414                    22466500.384                                   118062289.319 8 118062274.326 6                  91996578.978 6                                      2891.185        2891.185                        2252.884                                          48.000          36.000                          36.000
G18  24711268.080    24711267.894    24711267.863    24711266.545    24711265.414    24711269.583   129858596.729 6 129858590.723 4 129858638.737 7 101188513.769 4 101188510.793 6  96972321.460 7      1098.698        1098.698        1098.655         856.185         856.128         820.446          41.750          26.250          44.000          26.250          41.500          46.250
R12  22848211.979    22848212.036    22848213.092    22848212.513                   122051055.618 8 122051063.616 8  94928599.131 7  94928614.131 7                      4236.120        4236.120        3294.773        3294.758                          52.000          51.000          43.000          42.000
C19  24093809.908    24093812.680    24093809.038    24093804.821                    24093808.632    24093808.250   126613829.241 7 125462901.545 8  94549323.938 8 101948808.552 8                  97015817.440 8  95782590.584 8      2702.302        2677.743        2018.013        2175.869                        2070.639        2044.313          47.250          49.750          50.250          49.250                          50.750          53.500
C32  23981447.454    23981448.585    23981450.674    23981448.168                    23981450.018    23981449.875   126023345.632 8 124877903.860 8  94108418.379 8 101473416.032 8                  96563408.669 8  95335905.922 9     -2839.401       -2813.540       -2120.270       -2286.247                       -2175.603       -2147.960          48.750          50.000          52.000          51.000                          53.000          55.250
E24  22857889.654    22857900.754    22857881.344    22857899.620    22857899.503   120119017.391 8  89699279.875 8  97499215.794 8  92039259.421 9  90869268.785 9      2136.915        1595.743        1734.513        1637.382        1616.571          53.000          53.250          51.500          54.500          56.750
R11  19604235.471    19604235.800    19604235.775    19604235.937                   104759113.185 9 104759132.190 8  81479309.563 8  81479311.563 8                      1753.888        1753.888        1364.133        1364.133                          54.250          53.500          50.250          49.250
C37  22014411.917    22014413.306    22014415.349    22014413.617                    22014414.911    22014414.709   115686552.441 8 114634826.966 8  86389327.572 9  93150209.102 8                  88642952.852 9  87516132.605 9       699.328         692.922         522.195         563.052                         535.805         529.003          50.750          52.000          56.500          53.750                          56.750          59.750
C20  22014139.258    22014141.224    22014135.326    22014131.016                    22014134.887    22014134.634   115685119.227 8 114633453.740 8  86388249.678 9  93149037.912 8                  88641860.288 9  87515072.377 9        14.257          14.152          10.651          11.472                          10.949          10.808          51.250          52.250          56.000          53.250                          56.750          59.250
R19  24371700.996    24371699.661    24371700.504    24371700.760                   130372168.790 6 130372164.776 6 101400571.121 6 101400566.136 6                      2470.261        2470.261        1921.464        1921.434                          39.250          38.000          39.750          38.250
R01  19189136.411    19189136.934    19189138.229    19189138.264                   102576933.156 8 102576968.161 8  79782101.789 7  79782102.797 7                       -14.910         -14.910         -11.603         -11.601                          51.250          50.250          45.000          43.750
G09  24202033.908    24202033.996                    24202034.861    24202034.480    24202033.296   127182599.983 7 127182590.982 6                  99103330.075 6  99103332.071 7  94974029.565 8     -3234.748       -3234.748                       -2520.640       -2520.620       -2415.617          42.250          41.750                          41.750          44.750          48.750
G27  25111513.917    25111513.999                    25111514.311    25111513.130    25111513.050   131961904.128 6 131961903.149 5                 102827457.982 5 102827460.975 6  98542981.508 7      -110.611        -110.611                         -86.209         -86.194         -82.609          41.250          32.500                          32.500          39.250          45.500
G05  20834264.584    20834264.738                    20834262.239    20834262.206                   109484834.145 8 109484833.141 8                  85312863.971 8  85312859.975 8                      -704.716        -704.716                        -549.141        -549.140                          51.500          51.500                          51.500          51.000
G30  20438319.272    20438318.786                    20438319.618    20438319.584    20438317.589   107404131.113 8 107404127.117 8                  83691537.254 8  83691545.252 8  80204392.549 9      -300.950        -300.950                        -234.513        -234.506        -224.742          51.750          52.750                          52.750          53.000          58.000
R02  22261721.482    22261721.780    22261722.111    22261722.708                   118792847.835 8 118792841.839 8  92394462.633 7  92394427.637 7                      3785.187        3785.187        2944.051        2944.035                          52.000          51.250          45.750          44.500
E09  22396234.941    22396235.313    22396233.757    22396234.172    22396234.017   117693068.676 8  87887692.847 9  95530093.638 7  90180412.321 9  89034045.223 9     -1557.666       -1163.200       -1264.356       -1193.540       -1178.371          51.500          54.250          43.000          55.500          58.000
G08  24879420.221    24879419.364                    24879421.442    24879419.890    24879419.073   130742243.940 6 130742244.954 5                 101877075.554 5 101877074.543 6  97632195.065 7      1365.716        1365.716                        1064.162        1064.141        1019.839          39.500          34.250                          34.250          38.750          46.500
E13  28534368.066    28534368.515    28534369.284    28534367.356    28534367.416   149949175.881 5 111974993.853 5 121711951.643 4 114896083.070 5 113435535.130 5      1136.018         848.191         921.870         870.247         859.157          30.000          34.250          29.500          30.000          33.250
S25  39883825.355                   209589932.468 7                      -200.580                          45.750
E05  23744738.020    23744738.778    23744735.877    23744737.544    23744737.424   124779451.867 8  93179503.954 9 101282065.009 8  95610270.826 9  94394888.026 9       987.831         737.666         801.811         756.909         747.289          52.000          55.250          52.250          56.250          58.500
S26  40226641.366                   211392479.901 6                        69.044                          39.500
R08  20934271.245    20934271.197    20934272.090    20934272.233                   112102206.508 8 112102119.510 8  87190549.402 8  87190580.403 8                     -2982.173       -2982.173       -2319.457       -2319.464                          52.750          51.750          49.750          48.750
R18  23499391.651    23499391.441    23499391.737    23499392.569                   125441358.895 7 125441342.889 7  97565498.758 7  97565485.759 6                      -427.317        -427.317        -332.387        -332.407                          47.250          47.000          42.250          41.250
C10                  38251481.875                    38251476.375    38251477.722                                                   199185514.248 7                 161854594.840 7 154022909.144 7                                                        46.670                          37.910          36.066                                                          44.750                          45.750          46.500
S23  38593248.260    38593248.426   202809391.122 7 151448062.633 7         3.363           2.535          46.750          47.500
E03  27340718.211    27340719.077    27340716.399    27340717.543    27340717.599   143676468.849 7 107290877.023 7 116620513.166 7 110089763.340 7 108690314.823 8      2628.211        1962.601        2133.272        2013.794        1988.198          45.500          45.750          42.500          47.250          49.250
E25  28430434.517    28430435.688    28430433.164    28430434.629    28430434.444   149402945.672 7 111567137.802 7 121268626.252 6 114477585.326 7 113022364.203 7      3262.621        2436.345        2648.205        2499.900        2468.135          45.250          43.250          41.500          44.250          46.500
C07                  39717507.310                    39717498.557    39717500.775                                                   206819398.978 7                 168057789.839 7 159925965.599 7                                                      -606.224                        -492.611        -468.754                                                          43.000                          42.000          44.750
G07  21821338.296    21821338.014                    21821335.570    21821335.409                   114671946.813 8 114671951.816 8                  89354780.343 8  89354777.343 7                     -2027.125       -2027.125                       -1579.585       -1579.584                          49.500          50.250                          50.250          47.750
C05                  39983091.886                    39983088.056    39983086.021                                                   208202462.537 6                 169181543.163 7 160995324.869 7                                                         -.995                           -.939           -.898                                                          40.750                          42.000          43.750
S28  41262389.433    41262396.251   216835386.663 6 161922491.918 6         1.278           0.954          38.750          39.500
E01  28068528.885    28068529.503    28068528.167    28068527.751    28068527.792   147501241.226 7 110146972.753 7 119724968.701 6 113020372.596 7 111583669.812 7     -2804.174       -2094.005       -2276.119       -2148.631       -2121.308          45.500          44.250          40.750          44.000          46.750
R09  23637729.573    23637729.064    23637729.175    23637728.815    23637714.980   126224423.481 7 126224240.477 7  98174547.030 7  98174419.026 6  94776114.945 7     -4183.271       -4183.271       -3253.661       -3253.655       -3141.018          47.250          46.500          43.250          41.750          43.500
I09  41117370.855   161353434.217 5      -637.745          35.500
I03  41445489.614   162641039.823 7       -44.991          42.250
I02  37490152.414   147119472.012 7       324.146          42.750
I06  38311248.344   150341421.844 7        25.849          42.000
I04  41237268.570   161823948.135 6      -340.329          37.500
C02                                                                                                                                                                                                                                                                                                         2.441                                                                                                          31.250
> 2020  6 25  0  6  0.0000000  0 53
S44  40942136.775                   215152427.002 6                        92.202                          40.500
C23  23634500.629    23634502.232    23634494.546    23634491.535                    23634494.092    23634493.906   124200096.187 8 123071074.104 8  92746887.689 8 100005336.337 8                  95166362.799 9  93956619.144 9     -2297.668       -2276.719       -1715.757       -1850.042                       -1760.523       -1738.142          49.000          49.750          52.750          52.250                          54.000          56.250
R10  20546114.809    20546114.603                                                   109522468.225 8 109522372.241 8                                                     -2819.425       -2819.425                                                          53.000          52.250
C40  38284039.416    38284041.108    38284037.497    38284036.909                    38284037.359    38284036.957   201184103.608 7 199355056.397 8 150234830.049 8 161992319.222 8                 154154000.918 8 152194427.375 8      -355.908        -352.763        -265.768        -286.608                        -272.760        -269.276          47.750          48.250          50.250          48.500                          50.500          53.000
R17  24148233.973    24148234.640    24148234.298    24148236.404                   129221911.298 7 129222042.299 7 100506071.154 6 100506068.148 6                     -3038.094       -3038.094       -2362.967       -2362.999                          45.750          46.250          39.500          38.000
S36  38389650.557    38389653.889   201740299.344 7 150649194.022 8         -.990           -.750          46.750          51.250
E04  28674443.903    28674443.480    28674443.480    28674442.293    28674442.368   150685271.511 6 112524731.129 6 122309480.858 6 115460158.943 7 113992444.176 7     -2732.309       -2040.314       -2217.752       -2093.557       -2066.932          40.750          41.250          40.750          42.750          45.000
E31  24410140.099    24410141.093    24410137.750    24410140.110    24410139.895   128276378.340 8  95790666.714 8 104120286.005 8  98289551.381 9  97040110.684 9      -724.497        -541.005        -588.054        -555.119        -548.059          52.500          53.750          51.250          55.250          57.750
E15  27512143.502    27512144.739    27512142.129    27512143.618    27512143.538   144577323.115 7 107963565.128 7 117351701.561 7 110780006.457 7 109371785.426 7     -1143.110        -853.652        -927.885        -875.924        -864.791          44.750          43.500          42.750          45.500          47.500
C12                  26850547.895                    26850542.301    26850544.386                                                   139817884.758 4                 113613433.175 5 108115979.188 6                                                       202.403                         164.771         156.810                                                          29.000                          33.250          36.500
S27  39500055.662                   207574179.519 6                        -1.225                          38.750
G13  21754172.847    21754172.222                    21754170.078                                   114318986.205 8 114318977.213 6                  89079730.156 6                                      2451.272        2451.272                        1910.059                                          50.250          39.500                          39.500
G15  24210700.164    24210700.876                    24210698.443    24210697.820                   127227945.390 7 127228097.381 5                  99138779.138 5  99138780.138 6                      3459.648        3459.648                        2695.803        2695.851                          43.750          32.000                          32.000          41.250
G28  22450027.933    22450027.399                    22450024.608                                   117975714.319 8 117975699.336 6                  91929117.960 6                                      2880.477        2880.477                        2244.486                                          48.250          36.250                          36.250
G18  24705048.671    24705048.260    24705047.641    24705047.034    24705046.611    24705049.174   129825909.962 7 129825903.961 4 129825951.961 7 101163043.615 4 101163040.618 7  96947912.561 7      1080.385        1080.385        1080.461         841.914         841.902         806.813          43.250          27.000          44.500          27.000          42.500          46.750
R12  22824441.594    22824442.198    22824442.241    22824443.370                   121924085.475 8 121924093.472 8  94829844.597 7  94829859.601 7                      4228.504        4228.504        3288.826        3288.822                          50.500          49.750          42.750          42.000
C19  24078403.098    24078405.899    24078402.509    24078398.397                    24078401.912    24078401.757   126532867.550 8 125382675.879 8  94488865.560 8 101883618.630 8                  96953781.884 8  95721343.616 8      2695.130        2670.584        2012.568        2170.063                        2065.097        2038.842          48.000          49.000          50.250          49.250                          50.250          53.000
C32  23997681.277    23997683.040    23997684.469    23997681.911                    23997683.869    23997683.709   126108654.840 8 124962437.527 8  94172123.308 8 101542106.563 8                  96628775.461 8  95400441.781 9     -2847.907       -2822.024       -2126.697       -2293.126                       -2182.215       -2154.468          48.500          50.000          51.750          50.500                          52.500          55.000
E24  22845721.106    22845732.481    22845712.859    22845731.146    22845731.131   120055072.216 8  89651528.621 8  97447312.248 8  91990262.480 9  90820894.687 9      2126.041        1587.623        1725.682        1629.043        1608.339          53.000          53.250          51.750          54.750          57.000
R11  19594452.733    19594453.013    19594453.837    19594453.381                   104706837.246 9 104706856.251 8  81438650.510 8  81438652.509 8                      1731.142        1731.142        1346.435        1346.439                          54.750          53.750          50.000          49.500
C37  22010461.291    22010462.886    22010464.999    22010463.323                    22010464.575    22010464.287   115665793.044 8 114614256.290 8  86373825.426 9  93133493.737 9                  88627046.299 9  87500428.256 9       684.629         678.368         511.275         551.299                         524.611         517.956          50.250          51.500          56.500          54.000                          56.750          59.750
C20  22014100.999    22014103.174    22014096.969    22014092.661                    22014096.472    22014096.284   115684917.579 8 114633253.937 8  86388099.101 9  93148875.548 8                  88641705.782 9  87514919.836 9         -.803           -.868           -.640           -.676                           -.637           -.643          52.000          51.500          56.000          53.500                          56.750          59.250
R19  24357896.636    24357898.766    24357901.681    24357900.486                   130298346.534 6 130298342.554 5 101343153.861 6 101343148.877 6                      2451.210        2451.210        1906.487        1906.478                          36.750          35.500          38.500          38.000
R01  19189280.316    19189280.450    19189282.440    19189281.611                   102577700.692 8 102577735.700 8  79782698.756 7  79782699.770 7                       -36.327         -36.327         -28.231         -28.238                          51.500          50.500          45.250          44.000
G09  24220511.668    24220511.864                    24220512.877    24220513.358    24220511.551   127279703.953 6 127279694.941 6                  99178995.484 6  99178997.484 7  95046542.254 8     -3238.850       -3238.850                       -2523.670       -2523.644       -2418.502          40.750          41.750                          41.750          45.000          48.500
G27  25112201.576    25112201.296                    25112201.983    25112201.504    25112199.800   131965515.388 6 131965514.391 5                 102830271.941 5 102830274.932 6  98545678.213 7      -130.179        -130.179                        -101.421        -101.439         -97.201          41.250          32.000                          32.000          39.750          45.000
G05  20838344.473    20838344.548                    20838341.967    20838341.905                   109506273.380 8 109506272.382 8                  85329569.869 8  85329565.873 8                      -724.601        -724.601                        -564.636        -564.628                          51.000          51.250                          51.250          51.000
G30  20440079.477    20440078.999                    20440079.852    20440079.893    20440077.776   107413380.964 8 107413376.967 8                  83698744.932 8  83698752.934 8  80211299.909 9      -315.724        -315.724                        -246.011        -246.019        -235.767          52.000          52.750                          52.750          53.000          58.000
R02  22240454.572    22240454.627    22240455.451    22240455.067                   118679362.695 8 118679356.688 8  92306196.431 7  92306161.442 7                      3780.378        3780.378        2940.296        2940.289                          52.000          51.500          45.000          44.500
E09  22405149.899    22405150.530    22405149.284    22405149.430    22405149.249   117739918.404 8  87922678.030 9  95568121.014 8  90216310.165 9  89069486.737 9     -1565.718       -1169.199       -1270.879       -1199.706       -1184.454          51.750          54.250          52.250          55.750          58.000
G08  24871669.407    24871668.010                    24871670.190    24871670.701    24871666.510   130701509.233 6 130701510.225 5                 101845334.238 5 101845333.230 6  97601776.295 7      1349.960        1349.960                        1051.824        1051.868        1008.036          38.500          35.500                          35.500          41.500          43.500
E13  28527919.853    28527921.233    28527919.975    28527919.702    28527919.222   149915292.110 4 111949690.948 5 121684448.455 5 114870120.081 5 113409902.173 5      1122.542         838.614         911.470         860.437         849.450          29.250          32.750          31.500          30.500          33.250
S25  39884995.682                   209595951.787 7                      -200.759                          45.250
E05  23739121.653    23739122.349    23739119.691    23739121.265    23739121.118   124749937.945 8  93157464.338 9 101258108.906 8  95587656.264 9  94372560.937 9       979.738         731.612         795.224         750.697         741.159          52.500          55.500          52.250          56.500          58.750
S26  40226246.098                   211390402.738 6                        69.490                          38.500
R08  20951019.696    20951020.316    20951020.611    20951020.596                   112191893.311 8 112191806.311 8  87260305.794 8  87260336.797 8                     -2996.894       -2996.894       -2330.953       -2330.947                          53.250          52.250          50.000          48.500
R18  23501866.080    23501865.744    23501867.829    23501866.923                   125454564.946 7 125454548.929 7  97575770.134 7  97575757.129 7                      -453.042        -453.042        -352.354        -352.339                          47.750          47.000          43.500          42.000
C10                  38251225.930                    38251220.190    38251221.355                                                   199184180.355 7                 161853510.946 7 154021877.695 7                                                        42.146                          34.369          32.533                                                          44.250                          45.750          46.500
S23  38593227.849    38593229.134   202809288.065 7 151447985.530 7         3.403           2.563          46.750          47.500
E03  27325717.722    27325717.966    27325716.268    27325717.199    27325717.104   143597640.530 7 107232011.749 7 116556529.169 7 110029362.453 7 108630681.743 8      2627.037        1961.750        2132.334        2012.911        1987.337          45.000          45.000          43.250          47.000          49.000
E25  28411810.544    28411812.216    28411809.398    28411811.002    28411810.788   149305077.975 7 111494054.816 7 121189188.202 6 114402595.820 7 112948327.961 7      3262.033        2435.911        2647.732        2499.465        2467.694          44.000          43.250          41.250          44.250          46.500
C07                  39721009.130                    39721001.533    39721002.478                                                   206837636.882 7                 168072609.628 7 159940068.296 7                                                      -609.644                        -495.405        -471.429                                                          43.250                          42.000          44.250
G07  21832937.168    21832936.924                    21832934.347    21832934.067                   114732899.317 8 114732904.321 8                  89402275.796 8  89402272.801 8                     -2036.311       -2036.311                       -1586.741       -1586.754                          49.750          50.500                          50.500          48.000
C05                  39983097.065                    39983094.116    39983092.157                                                   208202494.635 6                 169181569.253 7 160995349.700 7                                                        -1.025                           -.770           -.792                                                          41.250                          42.500          44.000
S28  41262382.483    41262389.455   216835351.047 6 161922465.531 6         1.361           1.153          39.000          39.750
E01  28084551.571    28084551.834    28084550.902    28084550.275    28084550.217   147585439.745 7 110209848.276 7 119793311.633 6 113084888.345 7 111647365.447 7     -2809.058       -2097.702       -2280.078       -2152.411       -2125.052          45.750          43.750          41.250          44.750          47.250
R09  23661240.404    23661239.862    23661240.694    23661239.846    23661226.602   126349972.492 7 126349789.501 7  98272196.226 7  98272068.226 6  94870384.030 7     -4186.732       -4186.732       -3256.344       -3256.336       -3143.632          46.750          46.000          43.500          41.750          44.250
I09  41122242.301   161372556.614 5      -637.449          34.500
I03  41445833.297   162642390.708 7       -44.971          42.250
I02  37487680.869   147109770.895 7       322.684          42.500
I06  38311049.857   150340647.591 6        25.817          41.750
I04  41239875.440   161834177.206 6      -341.446          37.500
C02                                                                                                                                                                                                                                                                                                         2.430                                                                                                          31.000
> 2020  6 25  0  6 30.0000000  0 53
S44  40941610.945                   215149662.653 6                        92.230                          41.750
C23  23647643.524    23647645.524    23647637.474    23647634.552                    23647636.937    23647636.712   124269162.454 8 123139512.500 8  92798463.154 8 100060948.141 8                  95219283.705 8  94008867.326 9     -2306.830       -2285.821       -1722.615       -1857.438                       -1767.545       -1745.088          48.750          50.000          52.750          52.000                          53.750          56.000
R10  20562030.559    20562029.034                                                   109607301.750 8 109607205.756 8                                                     -2836.129       -2836.129                                                          53.000          52.250
C40  38286086.640    38286088.071    38286084.648    38286084.033                    38286084.397    38286084.196   201194861.807 7 199365716.811 8 150242863.783 8 162000981.674 8                 154162244.222 8 152202565.895 8      -361.245        -358.034        -269.790        -290.905                        -276.849        -273.328          47.500          48.500          50.250          48.000                          50.500          53.000
R17  24165307.150    24165305.433    24165306.312    24165307.054                   129313259.600 7 129313390.615 7 100577119.842 6 100577116.822 6                     -3051.867       -3051.867       -2373.740       -2373.710                          43.750          44.000          39.500          38.000
S36  38389655.137    38389658.194   201740325.750 7 150649212.146 8         -.647           -.463          47.000          49.500
E04  28690046.511    28690046.688    28690046.986    28690045.342    28690045.753   150767268.073 6 112585962.339 6 122376036.494 6 115522987.494 6 114054474.066 7     -2734.124       -2041.820       -2219.387       -2095.096       -2068.481          40.000          39.500          37.750          40.750          42.750
E31  24414314.837    24414315.724    24414312.435    24414314.760    24414314.533   128298316.186 8  95807048.873 8 104138092.695 8  98306360.901 9  97056706.522 9      -738.045        -551.137        -599.060        -565.513        -558.323          52.500          53.500          51.000          55.500          57.500
E15  27518706.713    27518707.910    27518706.125    27518706.703    27518706.802   144611813.101 7 107989320.647 7 117379696.681 7 110806433.861 7 109397876.888 7     -1156.329        -863.482        -938.551        -885.994        -874.732          45.000          44.000          42.750          45.500          47.500
S27  39500063.258                   207574216.110 6                        -1.174                          38.500
G13  21740200.906    21740200.588                    21740198.398                                   114245564.533 8 114245555.538 6                  89022518.476 6                                      2443.475        2443.475                        1904.000                                          51.250          38.500                          38.500
G15  24190958.584    24190958.433                    24190955.468    24190956.146                   127124197.003 7 127124348.992 5                  99057936.262 5  99057937.251 6                      3456.945        3456.945                        2693.713        2693.693                          43.750          30.750                          30.750          40.500
G28  22433614.350    22433613.853                    22433611.240                                   117889460.884 8 117889445.903 6                  91861907.503 6                                      2869.708        2869.708                        2236.137                                          48.750          37.000                          37.000
G18  24698931.369    24698932.005    24698931.309    24698929.416    24698929.433    24698932.886   129793767.586 6 129793761.579 4 129793809.611 7 101137997.650 4 101137994.644 6  96923910.184 7      1062.342        1062.342        1062.390         827.884         827.890         793.372          41.750          26.750          43.500          26.750          41.000          46.500
R12  22800715.586    22800716.370    22800716.758    22800717.533                   121797342.421 8 121797350.418 8  94731266.701 7  94731281.704 7                      4220.956        4220.956        3282.929        3282.942                          50.500          50.500          43.750          42.500
C19  24063038.256    24063040.525    24063037.566    24063033.265                    24063036.913    24063036.800   126452124.033 8 125302666.387 8  94428570.082 8 101818604.381 8                  96891913.481 8  95660261.675 8      2687.786        2663.396        2007.130        2164.208                        2059.499        2033.321          49.000          49.000          50.500          48.750                          50.750          53.250
C32  24013964.139    24013965.444    24013967.093    24013964.636                    24013966.587    24013966.381   126194221.236 8 125047226.045 8  94236020.286 8 101611004.171 8                  96694339.313 8  95465172.197 9     -2856.480       -2830.490       -2133.120       -2300.032                       -2188.757       -2160.950          49.000          49.750          51.750          50.750                          52.500          54.750
E24  22833614.957    22833626.317    22833606.552    22833625.078    22833624.987   119991454.171 8  89604021.647 8  97395674.231 8  91941516.193 9  90772768.056 9      2115.150        1579.475        1716.833        1620.688        1600.090          53.250          53.500          51.500          54.750          56.750
R11  19584797.553    19584798.184    19584797.369    19584798.279                   104655243.654 9 104655262.654 8  81398522.166 8  81398524.169 8                      1708.432        1708.432        1328.770        1328.781                          54.250          53.750          49.500          48.750
C37  22006594.592    22006595.966    22006598.047    22006596.438                    22006597.673    22006597.427   115645472.337 8 114594120.315 8  86358650.884 9  93117131.624 8                  88611475.900 9  87485055.785 9       670.080         663.953         500.352         539.505                         513.407         506.899          50.000          51.750          56.750          53.500                          56.750          59.750
C20  22014148.661    22014150.720    22014144.891    22014140.566                    22014144.384    22014144.204   115685169.398 8 114633503.459 8  86388287.140 9  93149078.305 8                  88641898.726 9  87515110.326 9       -15.986         -15.814         -11.938         -12.877                         -12.239         -12.092          51.000          51.500          56.000          53.250                          56.750          59.250
R19  24344209.145    24344207.666    24344209.486    24344207.195                   130225104.031 6 130225100.013 6 101286187.419 5 101286182.429 5                      2431.656        2431.656        1891.352        1891.328                          39.000          38.000          35.750          34.750
R01  19189544.145    19189544.095    19189546.922    19189545.714                   102579111.268 8 102579146.279 8  79783795.869 7  79783796.887 7                       -57.729         -57.729         -44.881         -44.867                          51.500          50.500          44.750          43.500
G09  24239013.435    24239013.212                    24239014.697    24239014.258    24239012.870   127376929.283 6 127376920.257 6                  99254755.450 6  99254757.458 7  95119145.556 8     -3242.822       -3242.822                       -2526.847       -2526.874       -2421.572          41.000          41.000                          41.000          45.250          48.250
G27  25112999.619    25112999.615                    25113000.098    25112997.763    25112998.231   131969710.608 6 131969709.616 5                 102833540.938 5 102833543.952 6  98548811.014 7      -149.651        -149.651                        -116.580        -116.611        -111.751          39.500          32.750                          32.750          38.000          45.000
G05  20842537.791    20842537.686                    20842535.072    20842535.301                   109528308.581 8 109528307.579 8                  85346740.148 8  85346736.154 8                      -744.423        -744.423                        -580.064        -580.075                          51.250          50.750                          50.750          50.250
G30  20441924.022    20441923.456                    20441924.298    20441924.397    20441922.271   107423073.803 8 107423069.803 8                  83706297.798 8  83706305.799 8  80218538.072 9      -330.499        -330.499                        -257.536        -257.545        -246.804          52.000          52.500                          52.500          52.750          57.750
R02  22219214.643    22219214.688    22219215.497    22219214.528                   118566022.065 8 118566016.063 8  92218042.640 7  92218007.645 7                      3775.575        3775.575        2936.576        2936.570                          52.500          51.750          44.500          43.750
E09  22414111.159    22414111.700    22414110.572    22414110.674    22414110.462   117787009.928 8  87957843.772 9  95606344.640 8  90252393.271 9  89105111.162 9     -1573.810       -1175.242       -1277.431       -1205.898       -1190.573          50.750          54.000          52.000          55.500          57.750
G08  24864008.400    24864007.177                    24864009.106    24864009.248    24864006.554   130661249.315 6 130661250.342 6                 101813962.918 6 101813961.919 6  97571712.117 7      1334.158        1334.158                        1039.587        1039.564         996.239          41.000          36.250                          36.250          41.500          46.000
E13  28521549.481    28521550.220    28521550.149    28521548.250    28521548.862   149881814.990 6 111924691.713 6 121657275.390 5 114844468.689 5 113384576.816 5      1109.319         828.180         900.250         849.803         839.019          39.000          36.500          34.250          33.500          35.750
S25  39886164.273                   209601972.086 7                      -200.634                          44.500
E05  23733551.601    23733552.154    23733549.495    23733551.069    23733550.904   124720666.276 8  93135605.622 9 101234349.433 8  95565227.318 9  94350417.104 9       971.639         725.560         788.659         744.497         735.035          52.500          55.250          51.750          56.500          58.750
S26  40225849.506                   211388316.947 6                        69.656                          38.250
R08  20967850.653    20967850.850    20967850.909    20967851.092                   112282021.878 8 112281934.875 8  87330405.794 8  87330436.792 8                     -3011.647       -3011.647       -2342.403       -2342.398                          53.000          52.000          49.000          48.000
R18  23504483.923    23504483.639    23504485.059    23504484.910                   125468540.335 8 125468524.334 7  97586639.890 7  97586626.888 7                      -478.654        -478.654        -372.276        -372.261                          48.000          46.750          43.000          42.000
C10                  38250995.610                    38250989.792    38250991.280                                                   199182980.850 7                 161852536.254 7 154020950.158 7                                                        37.743                          30.701          29.227                                                          44.500                          45.750          46.500
S23  38593207.905    38593209.244   202809185.103 7 151447908.775 7         3.566           2.671          46.750          47.250
E03  27310723.340    27310723.839    27310722.212    27310723.376    27310722.998   143518845.644 7 107173171.435 7 116492572.296 7 109968987.161 7 108571073.938 8      2626.039        1960.991        2131.529        2012.164        1986.579          45.250          44.750          43.750          47.750          49.500
E25  28393190.576    28393191.654    28393188.952    28393190.490    28393190.395   149207227.166 7 111420984.411 7 121109763.846 6 114327619.227 7 112874304.454 7      3261.368        2435.496        2647.281        2499.026        2467.264          44.250          42.000          41.000          44.000          46.000
C07                  39724532.603                    39724523.588    39724524.979                                                   206855978.786 7                 168087513.948 7 159954251.428 7                                                      -613.041                        -498.247        -474.122                                                          43.750                          42.000          44.000
G07  21844587.973    21844588.166                    21844585.700    21844585.611                   114794126.900 8 114794131.902 8                  89449985.599 8  89449982.604 7                     -2045.494       -2045.494                       -1593.874       -1593.886                          50.000          50.750                          50.750          47.750
C05                  39983104.377                    39983099.507    39983098.053                                                   208202523.734 6                 169181592.904 6 160995372.195 7                                                         -.923                           -.712           -.777                                                          41.750                          41.750          44.000
S28  41262377.334    41262382.828   216835315.040 6 161922438.330 6         1.235           0.907          39.250          40.000
E01  28100601.968    28100601.880    28100601.316    28100600.557    28100600.461   147669783.901 7 110272832.533 7 119861772.804 6 113149515.678 7 111711171.245 7     -2813.937       -2101.313       -2284.044       -2156.134       -2128.729          45.500          43.250          40.750          45.000          47.000
R09  23684770.834    23684770.695    23684770.497    23684769.722    23684756.808   126475621.411 7 126475438.408 7  98369923.123 7  98369795.127 6  94964728.099 7     -4189.915       -4189.915       -3258.846       -3258.843       -3146.050          47.750          46.500          42.250          41.000          44.500
I09  41127111.915   161391663.809 5      -637.072          34.750
I03  41446178.114   162643740.007 7       -44.868          42.500
I02  37485220.347   147100116.306 7       321.053          42.500
I06  38310852.252   150339876.699 7        25.626          42.250
I04  41242489.985   161844438.873 6      -342.551          37.250
C02                                                                                                                                                                                                                                                                                                         2.799                                                                                                          31.250
C12                                                                                                                                                                                                                                                                                       151.274         144.254                                                                                          33.750          34.250
> 2020  6 25  0  7  0.0000000  0 53
S44  40941085.117                   215146901.443 7                        92.027                          42.000
C23  23660838.917    23660840.420    23660832.742    23660829.694                    23660832.171    23660832.025   124338504.045 8 123208223.713 8  92850244.210 8 100116781.626 8                  95272415.578 8  94061323.794 9     -2315.964       -2294.912       -1729.467       -1864.777                       -1774.591       -1752.028          48.500          49.750          52.750          51.750                          53.750          56.000
R10  20578038.061    20578037.540                                                   109692635.782 8 109692539.792 8                                                     -2852.741       -2852.741                                                          52.750          52.000
C40  38288164.424    38288165.874    38288162.510    38288161.908                    38288162.211    38288161.968   201205780.690 7 199376536.421 8 150251017.488 8 162009773.490 8                 154170610.628 8 152210825.952 8      -366.641        -363.343        -273.767        -295.192                        -280.935        -277.369          47.500          48.500          50.250          48.250                          50.750          53.250
R17  24182453.514    24182453.317    24182453.869    24182455.512                   129405022.958 7 129405153.962 7 100648491.314 6 100648488.316 6                     -3065.618       -3065.618       -2384.392       -2384.416                          44.250          44.500          40.750          39.500
S36  38389659.814    38389662.672   201740344.907 7 150649227.095 8         -.569           -.438          47.000          49.000
E04  28705660.879    28705661.050    28705661.157    28705660.035    28705660.011   150849321.367 5 112647235.956 6 122442638.223 5 115585859.518 6 114116546.874 6     -2736.292       -2043.439       -2221.072       -2096.677       -2070.046          34.500          36.500          34.500          39.000          40.750
E31  24418566.922    24418567.866    24418564.469    24418566.880    24418566.673   128320661.316 8  95823735.174 8 104156229.983 8  98323482.497 9  97073610.474 9      -751.607        -561.256        -610.072        -575.899        -568.580          52.500          53.500          51.250          55.500          57.250
E15  27525345.571    27525346.852    27525343.945    27525345.739    27525345.566   144646700.523 7 108015372.971 7 117408014.420 6 110833165.803 7 109424269.028 7     -1169.564        -873.406        -949.367        -896.219        -884.821          44.750          44.000          41.750          45.250          47.500
C12                  26848401.730                    26848395.812    26848395.710                                                   139806698.987 5                 113604350.251 4 108107335.839 4                                                       169.821                         138.419         131.485                                                          31.500                          29.000          28.000
S27  39500070.636                   207574254.404 6                        -1.262                          38.500
G13  21726273.762    21726273.503                    21726271.258                                   114172377.524 8 114172368.538 6                  88965489.649 6                                      2435.652        2435.652                        1897.899                                          51.250          39.250                          39.250
G15  24171231.361    24171230.274                    24171229.235    24171228.346                   127020530.606 7 127020682.602 4                  98977157.277 4  98977158.262 6                      3454.161        3454.161                        2691.574        2691.613                          44.500          29.750                          29.750          40.500
G28  22417262.827    22417261.951                    22417260.065                                   117803531.586 8 117803516.590 6                  91794949.611 6                                      2858.931        2858.931                        2227.754                                          48.500          37.500                          37.500
G18  24692919.053    24692918.516    24692917.818    24692917.261    24692917.424    24692919.841   129762170.653 6 129762164.653 4 129762212.653 7 101113376.703 4 101113373.704 7  96900315.116 7      1043.987        1043.987        1044.121         813.613         813.545         779.623          41.500          27.750          43.750          27.750          42.750          46.000
R12  22777032.437    22777032.474    22777032.291    22777033.686                   121670829.599 8 121670837.602 8  94632867.865 7  94632882.870 6                      4213.181        4213.181        3276.943        3276.920                          50.000          50.000          43.250          41.750
C19  24047715.437    24047718.084    24047714.353    24047710.111                    24047713.804    24047713.715   126371600.614 8 125222875.019 8  94368438.980 8 101753767.362 8                  96830213.745 8  95599346.258 8      2680.470        2656.002        2001.609        2158.271                        2053.824        2027.738          48.250          49.750          50.750          49.000                          50.750          53.750
C32  24030295.843    24030296.939    24030298.509    24030296.431                    24030298.041    24030297.797   126280043.479 8 125132268.082 8  94300108.321 8 101680107.789 8                  96760099.211 8  95530096.163 9     -2865.018       -2838.912       -2139.437       -2306.851                       -2195.252       -2167.353          48.000          50.000          51.250          51.250                          52.500          55.000
E24  22821571.391    22821582.679    22821563.078    22821581.477    22821581.377   119928164.409 8  89556759.821 8  97344302.679 8  91893021.450 9  90724889.773 9      2104.211        1571.313        1707.951        1612.305        1591.815          53.000          53.500          51.750          54.750          57.000
R11  19575271.141    19575270.827    19575271.023    19575271.010                   104604333.404 8 104604352.409 8  81358925.316 8  81358927.318 8                      1685.639        1685.639        1311.039        1311.041                          53.500          53.500          49.750          48.750
C37  22002811.296    22002812.639    22002814.602    22002812.924                    22002814.218    22002813.954   115625590.222 8 114574418.950 8  86343803.854 9  93101122.651 8                  88596241.559 9  87470015.100 9       655.459         649.456         489.445         527.728                         502.195         495.825          50.500          51.750          56.750          53.750                          56.750          59.500
C20  22014282.963    22014285.207    22014279.182    22014274.877                    22014278.680    22014278.521   115685875.232 8 114634202.881 8  86388814.228 9  93149646.641 8                  88642439.563 9  87515644.289 9       -31.116         -30.834         -23.210         -25.042                         -23.831         -23.521          51.250          51.500          56.000          53.250                          56.750          59.000
R19  24330629.227    24330624.582    24330622.981    24330625.050                   130152445.070 6 130152441.070 6 101229674.894 6 101229669.903 5                      2412.165        2412.165        1876.089        1876.080                          40.000          39.250          36.250          35.000
R01  19189928.840    19189928.873    19189929.341    19189929.990                   102581166.184 8 102581201.190 8  79785394.155 7  79785395.160 7                       -79.278         -79.278         -61.683         -61.666                          51.250          50.250          44.750          44.000
G09  24257537.370    24257537.395                    24257538.908    24257538.536    24257537.287   127474275.039 6 127474266.041 6                  99330609.290 6  99330611.283 7  95191838.812 8     -3246.890       -3246.890                       -2530.045       -2530.033       -2424.618          40.500          40.500                          40.500          44.500          48.250
G27  25113909.070    25113909.868                    25113909.447    25113910.140    25113907.864   131974489.954 6 131974488.957 5                 102837265.111 5 102837268.095 6  98552380.007 7      -169.012        -169.012                        -131.708        -131.671        -126.227          40.500          33.250                          33.250          39.750          44.250
G05  20846844.269    20846844.252                    20846841.668    20846841.846                   109550939.769 8 109550938.772 8                  85364374.842 8  85364370.846 8                      -764.361        -764.361                        -595.629        -595.627                          51.250          50.750                          50.750          50.500
G30  20443852.597    20443852.145                    20443852.907    20443853.004    20443850.888   107433208.817 8 107433204.817 8                  83714195.216 8  83714203.215 8  80226106.432 9      -345.229        -345.229                        -268.996        -268.997        -257.790          52.250          52.750                          52.750          52.750          58.000
R02  22198002.471    22198002.360    22198002.902    22198003.253                   118452829.530 8 118452823.529 8  92130004.037 7  92129969.035 7                      3770.622        3770.622        2932.711        2932.725                          51.750          52.000          46.000          45.250
E09  22423118.405    22423118.901    22423117.778    22423117.827    22423117.689   117834343.116 8  87993189.973 9  95644764.428 8  90288661.545 9  89140918.399 9     -1581.848       -1181.221       -1283.932       -1212.030       -1196.626          50.250          54.000          52.000          55.750          57.750
G08  24856437.805    24856436.647                    24856437.754    24856438.415    24856435.628   130621466.069 6 130621467.069 5                 101782962.984 5 101782961.978 6  97542003.864 7      1318.051        1318.051                        1027.059        1027.022         984.243          39.000          33.000                          33.000          38.750          46.250
E13  28515256.601    28515257.120    28515256.902    28515255.999    28515256.071   149848745.311 6 111899996.796 6 121630433.111 6 114819129.577 6 113359559.826 6      1095.420         818.047         889.216         839.389         828.718          37.000          36.750          36.000          37.000          39.000
S25  39887334.141                   209607987.835 7                      -200.357                          44.000
E05  23728027.683    23728028.171    23728025.406    23728027.108    23728026.944   124691637.731 8  93113928.458 9 101210787.300 8  95542984.667 9  94328457.198 9       963.453         719.485         782.045         738.251         728.875          52.000          55.250          52.250          56.500          58.750
S26  40225451.850                   211386224.466 6                        69.769                          39.000
R08  20984763.148    20984763.040    20984765.107    20984764.159                   112372589.922 8 112372502.924 8  87400847.606 8  87400878.608 8                     -3026.265       -3026.265       -2353.790       -2353.793                          52.250          51.250          49.000          48.250
R18  23507245.126    23507245.054    23507248.772    23507247.106                   125483284.726 7 125483268.736 7  97598107.776 7  97598094.775 6                      -504.323        -504.323        -392.236        -392.245                          45.750          46.000          43.250          41.750
C10                  38250791.031                    38250785.120    38250786.963                                                   199181915.389 7                 161851670.473 7 154020126.285 7                                                        33.340                          27.118          25.801                                                          44.500                          45.750          46.750
S23  38593188.382    38593189.615   202809081.740 7 151447831.613 7         3.539           2.648          47.250          47.250
E03  27295735.249    27295736.121    27295734.753    27295735.652    27295735.310   143440085.009 7 107114356.705 7 116428643.237 7 109908638.144 8 108511492.058 8      2624.815        1960.106        2130.548        2011.240        1985.686          44.500          44.750          43.750          48.000          49.250
E25  28374573.794    28374574.971    28374572.014    28374573.638    28374573.623   149109394.636 7 111347927.654 6 121030354.344 6 114252656.650 7 112800294.796 7      3260.877        2435.058        2646.808        2498.588        2466.806          43.750          41.750          40.250          44.000          46.000
C07                  39728073.934                    39728066.090    39728067.872                                                   206874424.362 7                 168102502.469 7 159968514.696 7                                                      -616.611                        -501.020        -476.787                                                          43.250                          42.000          44.000
G07  21856291.373    21856291.353                    21856288.873    21856288.884                   114855627.747 8 114855632.748 8                  89497908.336 8  89497905.341 8                     -2054.597       -2054.597                       -1600.961       -1600.968                          50.500          50.500                          50.500          48.000
C05                  39983108.616                    39983104.844    39983102.900                                                   208202549.868 6                 169181614.125 7 160995392.378 7                                                         -.950                           -.748           -.546                                                          41.000                          42.000          43.750
S28  41262369.622    41262376.304   216835277.395 6 161922410.192 6         1.396           1.081          38.500          39.500
E01  28116679.267    28116679.461    28116679.344    28116677.946    28116678.012   147754272.012 7 110335924.288 7 119930350.796 7 113214253.302 7 111775085.934 7     -2818.609       -2104.779       -2287.812       -2159.685       -2132.232          46.500          43.750          42.250          44.500          47.000
R09  23708318.953    23708318.471    23708318.912    23708317.893    23708305.289   126601367.134 7 126601184.130 7  98467725.344 7  98467597.344 6  95059144.884 7     -4193.160       -4193.160       -3261.332       -3261.305       -3148.520          46.500          46.000          43.000          41.000          44.000
I09  41131975.764   161410755.798 5      -636.134          34.750
I03  41446520.088   162645087.627 7       -44.926          42.000
I02  37482772.386   147090507.947 7       319.342          42.000
I06  38310656.502   150339109.144 7        25.585          42.000
I04  41245114.843   161854733.149 6      -343.779          38.000
C02                                                                                                                                                                                                                                                                                                         2.626                                                                                                          32.000
> 2020  6 25  0  7 30.0000000  0 53
S44  40940559.893                   215144143.370 6                        91.778                          41.250
C23  23674085.846    23674088.056    23674080.033    23674077.048                    23674079.499    23674079.294   124408119.188 8 123277205.993 8  92902229.554 8 100172835.384 8                  95325757.054 8  94113987.200 9     -2325.059       -2303.895       -1736.225       -1872.103                       -1781.516       -1758.874          48.750          49.500          52.750          51.750                          53.500          56.000
R10  20594139.594    20594138.785                                                   109778465.865 8 109778369.884 8                                                     -2869.266       -2869.266                                                          52.750          52.000
C40  38290272.276    38290274.644    38290270.922    38290270.216                    38290270.581    38290270.211   201216859.812 7 199387514.819 8 150259290.861 8 162018694.354 8                 154179099.830 8 152219207.241 8      -371.972        -368.578        -277.760        -299.563                        -284.981        -281.385          47.750          48.750          50.250          48.750                          50.750          53.250
R17  24199678.967    24199678.426    24199679.569    24199680.670                   129497197.011 7 129497328.005 7 100720182.170 6 100720179.172 6                     -3079.177       -3079.177       -2394.925       -2394.910                          47.250          45.000          40.750          39.000
S36  38389663.857    38389667.186   201740362.002 7 150649251.210 7         -.542           -.456          46.750          45.500
E04  28721286.978    28721286.372    28721285.426    28721284.959    28721284.843   150931430.926 6 112708551.541 5 122509285.611 5 115648774.649 6 114178662.243 6     -2738.001       -2044.643       -2222.435       -2097.973       -2071.321          36.500          35.000          34.250          37.000          39.000
E31  24422896.392    24422897.260    24422894.024    24422896.322    24422896.126   128343412.823 8  95840724.943 8 104174697.115 8  98340915.475 9  97090821.846 9      -765.112        -571.356        -621.030        -586.256        -578.806          52.500          53.500          51.250          55.250          57.500
E15  27532059.076    27532061.191    27532058.773    27532059.688    27532059.771   144681984.157 7 108041721.141 7 117436653.731 6 110860201.308 7 109450960.867 7     -1182.669        -883.241        -960.021        -906.267        -894.759          44.250          44.750          41.500          45.250          47.750
C12                  26847469.800                    26847463.768    26847465.283                                                   139801846.101 5                 113600407.005 4 108103582.365 5                                                       153.701                         124.509         118.784                                                          30.000                          29.250          33.500
S27  39500079.360                   207574293.269 6                        -1.354                          38.750
G13  21712391.984    21712391.346                    21712389.138                                   114099426.559 8 114099417.560 6                  88908644.740 6                                      2427.780        2427.780                        1891.783                                          51.000          39.750                          39.750
G15  24151519.805    24151519.816                    24151517.595    24151517.308                   126916947.750 7 126917099.746 5                  98896443.356 5  98896444.363 6                      3451.363        3451.363                        2689.434        2689.448                          45.000          30.000                          30.000          39.250
G28  22400972.915    22400972.236                    22400970.514                                   117717929.299 8 117717914.301 6                  91728246.551 6                                      2847.913        2847.913                        2219.142                                          49.000          36.750                          36.750
G18  24687010.054    24687009.761    24687010.519    24687009.224    24687008.518    24687011.517   129731120.031 6 129731114.026 4 129731162.020 7 101089181.425 4 101089178.437 7  96877127.984 7      1026.064        1026.064        1026.030         799.507         799.497         766.176          41.500          26.500          43.750          26.500          42.250          46.250
R12  22753392.307    22753392.166    22753393.886    22753393.913                   121544549.713 8 121544557.719 8  94534650.216 7  94534665.222 7                      4205.406        4205.406        3270.870        3270.876                          50.500          49.500          43.250          42.500
C19  24032434.399    24032436.826    24032433.530    24032429.341                    24032432.933    24032432.797   126291299.189 8 125143303.598 8  94308473.642 8 101689109.075 8                  96768684.090 8  95538598.762 8      2673.031        2648.661        1996.093        2152.301                        2048.152        2022.125          49.250          49.250          50.750          49.250                          50.750          53.500
C32  24046675.062    24046676.870    24046678.437    24046676.082                    24046678.031    24046677.723   126366120.216 8 125217562.309 8  94364386.401 8 101749416.340 8                  96826054.118 8  95595212.659 9     -2873.468       -2847.336       -2145.764       -2313.707                       -2201.786       -2173.788          49.000          50.500          51.750          50.500                          52.750          55.250
E24  22809590.551    22809601.887    22809582.144    22809600.396    22809600.398   119865204.049 8  89509743.977 8  97293198.503 8  91844779.104 9  90677260.676 9      2093.206        1563.110        1699.015        1603.882        1583.499          53.750          53.500          51.500          55.000          57.000
R11  19565871.443    19565871.735    19565872.124    19565872.248                   104554107.659 9 104554126.663 8  81319860.846 8  81319862.848 8                      1662.799        1662.799        1293.288        1293.285                          54.750          53.500          49.750          48.750
C37  21999110.813    21999112.373    21999114.652    21999112.932                    21999114.190    21999113.962   115606146.591 8 114555152.074 8  86329284.266 9  93085466.747 8                  88581343.193 9  87455306.123 9       640.831         634.980         478.522         515.981                         491.035         484.788          49.750          51.750          56.500          53.500                          57.000          59.500
C20  22014504.127    22014505.819    22014500.090    22014495.652                    22014499.548    22014499.353   115687035.687 8 114635352.787 8  86389680.798 9  93150581.032 8                  88643328.741 9  87516522.164 9       -46.277         -45.892         -34.554         -37.269                         -35.447         -34.998          51.250          51.250          56.250          52.750                          56.750          59.250
R19  24317151.207    24317152.386    24317151.748    24317151.179                   130080373.075 6 130080369.070 6 101173618.840 6 101173613.848 5                      2392.545        2392.545        1860.890        1860.924                          39.750          38.250          37.250          35.750
R01  19190433.984    19190433.725    19190434.678    19190435.372                   102583866.148 8 102583901.164 8  79787494.129 7  79787495.135 7                      -100.801        -100.801         -78.421         -78.426                          51.250          50.250          45.000          43.500
G09  24276085.053    24276084.734                    24276085.753    24276085.928    24276084.207   127571740.395 7 127571731.411 6                  99406556.332 6  99406558.324 7  95264621.385 8     -3250.851       -3250.851                       -2533.186       -2533.155       -2427.620          42.250          41.250                          41.250          45.250          48.250
G27  25114930.064    25114929.874                    25114930.886    25114930.511    25114928.459   131979853.524 6 131979852.527 5                 102841444.509 5 102841447.497 6  98556385.258 7      -188.455        -188.455                        -146.791        -146.808        -140.704          40.750          33.750                          33.750          40.750          44.500
G05  20851264.142    20851264.127                    20851261.508    20851261.785                   109574166.199 8 109574165.202 8                  85382473.354 8  85382469.357 8                      -784.154        -784.154                        -611.033        -611.031                          51.000          50.750                          50.750          50.500
G30  20445865.002    20445864.773                    20445865.572    20445865.531    20445863.511   107443785.216 8 107443781.215 8                  83722436.573 8  83722444.570 8  80234004.399 9      -359.887        -359.887                        -280.418        -280.424        -268.735          52.000          53.000                          53.000          53.000          58.000
R02  22176818.515    22176818.338    22176819.461    22176819.038                   118339787.143 8 118339781.146 8  92042082.212 7  92042047.214 7                      3765.543        3765.543        2928.769        2928.784                          51.500          51.500          45.750          44.500
E09  22432171.246    22432172.000    22432171.047    22432170.978    22432170.853   117881917.852 8  88028716.555 9  95683380.287 8  90325114.909 9  89176908.373 9     -1589.823       -1187.234       -1290.480       -1218.205       -1202.719          51.250          54.000          51.750          55.750          57.750
G08  24848956.542    24848957.768                    24848958.707    24848958.701    24848956.030   130582161.838 6 130582162.844 5                 101752336.329 5 101752335.320 6  97512653.321 7      1302.114        1302.114                        1014.664        1014.681         972.397          39.250          35.750                          35.750          40.500          44.750
E13  28509039.980    28509042.260    28509041.109    28509040.841    28509040.639   149816084.054 6 111875606.939 6 121603922.373 5 114794103.448 5 113334851.837 6      1081.969         807.921         878.182         829.002         818.455          37.750          36.750          32.500          33.500          39.750
S25  39888503.076                   209615384.942 7                      -200.845                          44.250
E05  23722550.151    23722550.726    23722547.875    23722549.578    23722549.451   124662853.189 8  93092433.505 9 101187423.217 8  95520928.976 9  94306681.875 9       955.374         713.437         775.481         732.047         722.751          51.750          55.000          52.250          56.250          58.500
S26  40225052.136                   211384128.559 6                        69.884                          38.000
R08  21001758.458    21001758.330    21001759.348    21001758.879                   112463596.148 8 112463509.150 8  87471630.212 8  87471661.208 7                     -3040.799       -3040.799       -2365.060       -2365.050                          52.250          51.500          49.000          47.750
R18  23510150.937    23510151.301    23510153.012    23510152.746                   125498796.754 7 125498780.753 7  97610172.659 7  97610159.665 6                      -529.835        -529.835        -412.118        -412.136                          47.000          46.750          42.500          41.500
C10                  38250611.991                    38250606.401    38250607.984                                                   199180983.731 7                 161850913.444 7 154019405.882 7                                                        28.932                          23.471          22.223                                                          44.250                          46.000          46.250
S23  38593169.087    38593170.080   202808977.516 7 151447753.646 7         3.512           2.622          46.750          47.500
E03  27280754.140    27280755.388    27280753.381    27280754.540    27280754.304   143361359.421 7 107055568.147 7 116364742.633 7 109848315.970 7 108451936.694 8      2623.536        1959.175        2129.510        2010.288        1984.732          44.750          45.500          43.000          47.750          49.750
E25  28355960.786    28355961.634    28355958.845    28355960.444    28355960.413   149011582.059 7 111274885.862 7 120950961.061 6 114177709.415 7 112726300.274 7      3260.011        2434.449        2646.118        2497.958        2466.205          45.500          43.000          40.250          44.250          46.250
C07                  39731636.063                    39731627.930    39731629.447                                                   206892973.175 7                 168117574.897 7 159982857.826 7                                                      -620.023                        -503.857        -479.471                                                          44.000                          42.250          44.000
G07  21868046.493    21868046.389                    21868043.925    21868043.550                   114917400.530 8 114917405.532 8                  89546042.991 8  89546039.996 8                     -2063.608       -2063.608                       -1608.006       -1608.001                          50.500          50.750                          50.750          48.000
C05                  39983113.787                    39983108.679    39983107.011                                                   208202572.987 6                 169181632.970 7 160995410.295 7                                                         -.618                           -.727           -.487                                                          40.750                          42.250          44.000
S28  41262362.056    41262368.710   216835242.090 6 161922383.578 6         0.990           0.780          38.500          38.750
E01  28132784.588    28132784.202    28132783.058    28132782.494    28132782.602   147838902.473 7 110399122.336 7 119999044.323 6 113279099.993 7 111839108.312 7     -2823.326       -2108.331       -2291.651       -2163.349       -2135.850          45.000          44.000          41.000          44.500          47.000
R09  23731884.341    23731883.947    23731883.203    23731884.660    23731870.646   126727206.450 7 126727023.447 7  98565600.346 7  98565472.340 6  95153631.918 7     -4196.127       -4196.127       -3263.650       -3263.643       -3150.681          46.500          45.750          43.500          41.750          42.750
I09  41136837.564   161429832.471 5      -635.592          35.250
I03  41446863.968   162646433.626 7       -44.881          42.000
I02  37480335.409   147080946.067 7       318.065          42.500
I06  38310462.300   150338344.932 7        25.498          42.250
I04  41247746.681   161865059.790 6      -344.769          38.000
C02                                                                                                                                                                                                                                                                                                         3.203                                                                                                          31.250
> 2020  6 25  0  8  0.0000000  0 52
S44  40940036.507                   215141388.408 7                        91.802                          42.500
C23  23687385.082    23687386.892    23687379.075    23687376.143                    23687378.526    23687378.368   124478006.066 8 123346457.527 8  92954417.804 8 100229107.926 8                  95379306.735 8  94166856.169 9     -2334.068       -2312.832       -1742.986       -1879.365                       -1788.448       -1765.725          48.750          50.250          53.000          51.750                          53.500          56.000
R10  20610333.939    20610332.872                                                   109864788.939 8 109864692.947 8                                                     -2885.662       -2885.662                                                          52.750          52.000
C40  38292410.960    38292412.777    38292409.532    38292408.982                    38292409.201    38292408.931   201228098.806 7 199398651.644 8 150267683.625 8 162027743.942 8                 154187711.541 8 152227709.478 8      -377.312        -373.845        -281.744        -303.802                        -289.088        -285.421          47.500          48.750          50.250          48.250                          50.500          53.000
R17  24216977.795    24216978.820    24216982.680    24216981.137                   129589777.402 7 129589908.392 7 100792189.110 6 100792186.111 6                     -3092.733       -3092.733       -2405.458       -2405.441                          46.750          44.000          41.000          39.500
S36  38389668.096    38389671.209   201740388.761 7 150649268.674 8         -.828           -.558          46.750          49.750
E31  24427302.969    24427303.910    24427300.728    24427302.906    24427302.747   128366569.774 8  95858017.475 8 104193493.345 8  98358659.118 9  97108339.936 9      -778.645        -581.465        -632.026        -596.639        -589.056          52.250          53.500          51.250          55.500          57.500
E15  27538848.967    27538850.723    27538848.206    27538848.982    27538849.188   144717662.770 7 108068364.265 7 117465613.664 7 110887539.471 7 109477951.510 7     -1195.893        -893.075        -970.739        -916.379        -904.730          44.750          44.750          42.000          45.250          47.500
C12                  26846631.006                    26846625.945    26846627.101                                                   139797483.706 4                 113596862.536 5 108100209.418 5                                                       136.768                         111.796         106.151                                                          27.750                          31.750          32.750
S27  39500085.105                   207574332.555 6                        -1.230                          38.500
G13  21698554.838    21698554.746                    21698552.027                                   114026712.464 8 114026703.472 6                  88851984.420 6                                      2419.895        2419.895                        1885.624                                          50.500          39.250                          39.250
G15  24131823.957    24131824.375                    24131822.933    24131823.102                   126813450.163 6 126813602.165 4                  98815795.926 4  98815796.915 6                      3448.602        3448.602                        2687.086        2687.180                          41.750          29.000                          29.000          40.500
G28  22384746.370    22384745.568                    22384743.359                                   117632656.368 8 117632641.381 6                  91661800.125 6                                      2836.996        2836.996                        2210.573                                          48.750          37.000                          37.000
G18  24681205.356    24681205.107    24681204.959    24681203.612    24681204.473    24681206.919   129700616.688 6 129700610.708 4 129700658.706 7 101065412.667 4 101065409.646 7  96854349.572 7      1007.653        1007.653        1007.577         785.073         785.113         752.391          41.250          26.500          43.250          26.500          42.750          46.000
R12  22729797.062    22729796.774    22729797.768    22729797.564                   121418505.482 8 121418513.485 8  94436615.827 7  94436630.825 7                      4197.498        4197.498        3264.741        3264.749                          50.750          50.250          44.000          42.250
C19  24017195.944    24017199.374    24017195.251    24017191.100                    24017194.723    24017194.505   126211221.561 8 125063953.940 8  94248675.437 8 101624631.004 8                  96707325.925 8  95478020.574 8      2665.542        2641.317        1990.511        2146.246                        2042.430        2016.480          48.500          50.000          50.500          49.000                          50.750          53.250
C32  24063103.412    24063104.403    24063106.599    24063103.986                    24063105.998    24063105.794   126452450.181 8 125303107.463 8  94428853.581 8 101818928.769 8                  96892203.047 8  95660520.712 9     -2881.902       -2855.678       -2152.000       -2320.457                       -2208.179       -2180.107          49.000          48.750          51.750          50.500                          52.500          54.500
E24  22797672.257    22797683.712    22797664.176    22797682.393    22797682.319   119802574.191 8  89462974.939 8  97242362.586 8  91796790.005 9  90629881.610 9      2082.155        1554.836        1690.035        1595.394        1575.116          53.500          53.500          52.000          54.750          57.000
R11  19556600.334    19556600.845    19556600.871    19556601.093                   104504567.551 9 104504586.549 8  81281329.666 8  81281331.668 8                      1639.902        1639.902        1275.472        1275.470                          54.000          53.500          50.000          49.000
C37  21995494.299    21995495.991    21995498.008    21995496.324                    21995497.583    21995497.369   115587141.337 8 114536319.586 8  86315092.033 9  93070163.812 8                  88566780.729 9  87440928.775 9       626.223         620.527         467.623         504.223                         479.817         473.733          50.250          51.500          56.500          53.750                          57.000          59.250
C20  22014811.408    22014813.403    22014807.494    22014803.120                    22014806.966    22014806.731   115688651.278 8 114636953.687 8  86390887.251 9  93151881.894 8                  88644566.663 9  87517744.352 9       -61.406         -60.877         -45.897         -49.442                         -47.077         -46.494          51.000          51.500          56.000          53.250                          56.500          59.000
R19  24303788.759    24303787.435    24303786.953    24303788.387                   130008891.133 6 130008887.145 5 101118021.759 6 101118016.770 6                      2372.741        2372.741        1845.517        1845.508                          36.250          35.250          37.750          36.750
R01  19191059.970    19191059.815    19191060.954    19191061.442                   102587212.602 8 102587247.612 8  79790096.912 7  79790097.936 7                      -122.317        -122.317         -95.178         -95.162                          51.000          50.000          45.000          43.750
G09  24294654.340    24294654.368                    24294655.503    24294655.680    24294653.977   127669324.463 6 127669315.459 6                  99482595.836 6  99482597.835 7  95337492.586 8     -3254.733       -3254.733                       -2536.149       -2536.108       -2430.463          41.750          41.250                          41.250          45.000          48.750
G27  25116060.752    25116061.242                    25116062.347    25116062.230    25116059.636   131985801.362 6 131985800.378 5                 102846079.209 5 102846082.205 6  98560826.839 7      -207.989        -207.989                        -162.195        -162.192        -155.441          38.750          31.750                          31.750          40.250          44.000
G05  20855796.806    20855796.990                    20855794.488    20855794.323                   109597986.975 8 109597985.976 8                  85401034.993 8  85401030.998 8                      -803.950        -803.950                        -626.443        -626.443                          50.500          51.000                          51.000          50.750
G30  20447961.682    20447961.178                    20447961.990    20447961.854    20447959.941   107454802.133 8 107454798.134 8                  83731021.192 8  83731029.190 8  80242231.326 9      -374.572        -374.572                        -291.895        -291.882        -279.735          52.000          52.750                          52.750          53.250          57.750
R02  22155662.744    22155662.987    22155663.172    22155663.582                   118226898.161 8 118226892.159 8  91954279.691 7  91954244.692 7                      3760.426        3760.426        2924.754        2924.761                          52.250          51.500          45.250          44.000
E09  22441270.610    22441271.164    22441270.063    22441270.099    22441269.956   117929734.001 8  88064423.410 8  95722192.083 8  90361753.249 9  89213080.970 9     -1597.892       -1193.217       -1296.969       -1224.345       -1208.779          51.000          53.750          52.000          55.750          57.750
G08  24841569.030    24841569.649                    24841571.094    24841571.240    24841568.756   130543338.471 6 130543339.479 6                 101722084.388 6 101722083.381 6  97483661.867 7      1286.174        1286.174                        1002.211        1002.214         960.473          39.750          36.250                          36.250          41.750          45.750
E13  28502903.823    28502903.345    28502903.619    28502902.904    28502903.128   149783832.18514 111851522.85315 121577743.94215 114769391.05315 113310453.56815      1068.632         797.688         867.139         818.539         808.182          27.000          34.250          31.500          32.500          32.250
S25  39889671.307                   209621401.330 7                      -200.279                          45.000
E05  23717119.472    23717119.717    23717117.095    23717118.696    23717118.525   124634313.539 8  93071121.430 9 101164257.917 8  95499060.932 9  94285091.814 9       947.212         707.339         768.856         725.796         716.576          52.000          55.250          52.250          56.500          58.500
S26  40224652.820                   211382029.276 6                        70.077                          38.000
R08  21018834.075    21018834.750    21018835.472    21018835.275                   112555038.904 8 112554951.904 8  87542752.348 8  87542783.340 7                     -3055.336       -3055.336       -2376.388       -2376.374                          53.000          51.750          48.750          47.750
R18  23513202.890    23513201.267    23513203.477    23513202.388                   125515075.748 7 125515059.751 7  97622834.097 7  97622821.097 6                      -555.383        -555.383        -431.998        -431.986                          45.750          46.500          43.250          41.250
C10                  38250458.665                    38250453.165    38250454.355                                                   199180185.585 7                 161850264.879 7 154018788.690 7                                                        24.369                          19.788          18.903                                                          44.250                          46.500          46.500
S23  38593149.201    38593150.189   202808872.715 7 151447675.061 7         3.432           2.595          46.750          47.250
E03  27265780.350    27265781.623    27265779.174    27265780.127    27265780.161   143282669.673 7 106996806.366 7 116300871.090 7 109788021.272 7 108392408.452 8      2622.427        1958.302        2128.611        2009.402        1983.854          46.250          46.250          43.000          47.250          49.750
E25  28337351.127    28337352.606    28337349.765    28337351.188    28337351.235   148913790.581 7 111201859.785 7 120871584.866 6 114102778.297 7 112652321.685 7      3259.371        2433.933        2645.562        2497.427        2465.666          45.250          42.250          40.500          43.500          45.750
C07                  39735218.516                    39735210.050    39735211.467                                                   206911624.920 7                 168132730.980 7 159997280.527 7                                                      -623.366                        -506.566        -482.024                                                          42.750                          42.500          44.250
G07  21879852.836    21879852.813                    21879850.328    21879849.971                   114979443.878 8 114979448.878 8                  89594388.456 8  89594385.466 8                     -2072.602       -2072.602                       -1615.016       -1615.034                          49.750          50.500                          50.500          48.250
C05                  39983117.732                    39983112.717    39983110.714                                                   208202593.132 6                 169181649.328 6 160995425.888 7                                                         -.690                           -.625           -.474                                                          40.750                          41.750          44.500
S28  41262355.292    41262361.879   216835206.228 6 161922357.314 6         1.530           1.212          38.000          39.750
E01  28148915.323    28148915.626    28148914.462    28148913.915    28148914.010   147923673.565 7 110462425.425 7 120067852.050 6 113344054.470 7 111903237.088 7     -2828.018       -2111.865       -2295.522       -2166.949       -2139.409          45.500          44.000          41.000          44.250          46.750
R09  23755467.438    23755466.615    23755466.778    23755466.202    23755453.067   126853136.148 7 126852953.152 7  98663545.605 7  98663417.623 6  95248186.827 7     -4199.123       -4199.123       -3265.898       -3265.948       -3152.872          46.500          46.250          42.750          41.750          43.500
I09  41141695.078   161448893.738 6      -635.162          36.500
I03  41447206.389   162647778.058 7       -44.867          42.250
I02  37477910.935   147071430.491 7       316.516          42.250
I06  38310268.240   150337584.111 7        25.284          42.500
I04  41250384.900   161875418.728 6      -345.768          38.750
C02                                                                                                                                                                                                                                                                                                         3.054                                                                                                          32.250
> 2020  6 25  0  8 30.0000000  0 53
S44  40939512.254                   215138636.590 7                        91.707                          42.250
C02                  41416558.137                                    41416549.939                                                   215666870.278 4                                 166767300.273 5                                                         3.690                                           3.221                                                          29.500                                          32.000
C23  23700735.470    23700737.434    23700729.390    23700726.492                    23700728.952    23700728.723   124548162.901 8 123415976.581 8  93006807.644 8 100285597.845 8                  95433063.268 8  94219929.355 9     -2343.038       -2321.742       -1749.634       -1886.612                       -1795.279       -1772.471          49.250          50.000          53.000          52.000                          53.250          56.000
R10  20626618.390    20626618.823                                                   109951601.740 8 109951505.751 8                                                     -2901.869       -2901.869                                                          52.500          51.500
C40  38294580.178    38294582.017    38294578.627    38294578.114                    38294578.316    38294578.005   201239497.264 7 199409946.477 8 150276195.461 8 162036921.918 8                 154196445.427 8 152236332.336 8      -382.580        -379.097        -285.743        -308.099                        -293.178        -289.451          47.750          48.250          50.250          48.500                          50.750          53.000
R17  24234355.125    24234355.212    24234358.140    24234357.028                   129682760.082 7 129682891.064 6 100864508.919 6 100864505.928 6                     -3106.138       -3106.138       -2415.828       -2415.891                          42.750          41.750          39.000          38.000
S36  38389672.753    38389675.665   201740411.733 7 150649281.831 8         -.637           -.483          47.250          49.000
E31  24431786.771    24431787.408    24431784.112    24431786.553    24431786.342   128390131.226 8  95875612.072 8 104212617.900 8  98376712.702 9  97126164.022 9      -792.130        -591.509        -642.932        -606.937        -599.220          52.750          53.750          51.250          55.250          57.500
E15  27545713.088    27545714.781    27545712.512    27545713.481    27545713.601   144753735.125 7 108095301.409 7 117494893.184 7 110915179.325 7 109505240.006 7     -1209.013        -902.838        -981.365        -926.383        -914.610          45.000          44.000          42.250          45.750          47.750
S27  39500093.543                   207574370.788 6                        -1.306                          38.500
G13  21684763.189    21684762.521                    21684760.756                                   113954236.611 8 113954227.626 6                  88795509.741 6                                      2411.896        2411.896                        1879.388                                          50.750          39.500                          39.500
G15  24112146.615    24112147.177                    24112144.189    24112144.369                   126710038.853 7 126710190.848 5                  98735215.705 5  98735216.701 6                      3445.664        3445.664                        2684.911        2684.952                          44.000          30.000                          30.000          40.750
G28  22368582.416    22368582.050                    22368579.813                                   117547715.349 8 117547700.371 6                  91595612.329 6                                      2825.818        2825.818                        2201.944                                          49.250          37.500                          37.500
G18  24675505.774    24675505.558    24675505.157    24675504.182    24675503.510    24675506.487   129670661.572 6 129670655.578 4 129670703.578 7 101042071.052 4 101042068.035 7  96831980.528 7       989.378         989.378         989.332         770.850         770.874         738.773          41.250          27.500          43.750          27.500          42.750          46.500
R12  22706245.085    22706245.492    22706246.054    22706246.844                   121292699.716 8 121292707.712 8  94338766.896 7  94338781.908 7                      4189.496        4189.496        3258.479        3258.460                          50.000          49.500          44.250          43.000
C19  24002000.950    24002003.559    24002000.082    24001995.957                    24001999.424    24001999.146   126131369.684 8 124984827.979 8  94189045.800 8 101560334.693 8                  96646140.729 8  95417613.158 8      2657.919        2633.848        1984.828        2140.179                        2036.627        2010.745          48.000          50.000          50.500          49.250                          50.750          53.500
C32  24079579.436    24079580.778    24079582.508    24079580.082                    24079581.929    24079581.801   126539032.047 8 125388902.212 8  94493508.859 8 101888644.028 8                  96958544.983 8  95726019.318 9     -2890.266       -2863.965       -2158.318       -2327.217                       -2214.617       -2186.461          48.250          50.250          51.250          51.250                          52.250          54.750
E24  22785817.698    22785828.693    22785808.991    22785827.414    22785827.363   119740275.939 8  89416453.523 8  97191795.825 8  91749054.983 9  90582753.391 9      2071.080        1546.585        1681.067        1586.929        1566.762          53.500          53.250          51.750          54.750          57.000
R11  19547458.384    19547458.609    19547458.120    19547458.860                   104455713.982 9 104455732.983 8  81243332.452 8  81243334.451 8                      1617.013        1617.013        1257.680        1257.686                          54.250          53.750          50.000          49.250
C37  21991961.109    21991963.139    21991964.826    21991963.178                    21991964.442    21991964.200   115568574.304 8 114517921.360 8  86301227.056 9  93055213.753 8                  88552554.056 9  87426882.950 9       611.670         606.015         456.716         492.430                         468.624         462.668          50.250          51.500          56.750          53.500                          57.000          59.750
C20  22015205.581    22015207.447    22015201.648    22015197.256                    22015201.100    22015200.930   115690722.589 8 114639006.168 8  86392434.005 9  93153549.703 8                  88646153.771 9  87519311.283 9       -76.666         -75.956         -57.236         -61.710                         -58.720         -57.987          50.750          51.000          56.250          53.500                          56.500          59.250
R19  24290536.370    24290536.249    24290538.125    24290537.797                   129938003.029 6 129937999.042 6 101062886.581 6 101062881.611 6                      2352.999        2352.999        1830.118        1830.090                          36.500          36.000          38.500          37.250
R01  19191807.227    19191806.938    19191808.218    19191808.677                   102591206.493 8 102591241.501 8  79793203.277 7  79793204.283 7                      -143.960        -143.960        -111.968        -111.963                          51.500          50.000          45.000          43.750
G09  24313246.179    24313246.440                    24313247.396    24313247.335    24313245.933   127767026.354 7 127767017.348 6                  99558727.160 6  99558729.172 7  95410451.774 8     -3258.684       -3258.684                       -2539.243       -2539.250       -2433.454          42.250          41.250                          41.250          44.500          48.000
G27  25117304.932    25117304.915                    25117305.779    25117305.094    25117302.560   131992333.550 6 131992332.573 5                 102851169.238 5 102851172.223 6  98565704.769 7      -227.509        -227.509                        -177.341        -177.306        -169.896          40.500          34.000                          34.000          41.250          43.250
G05  20860442.944    20860443.028                    20860440.369    20860440.526                   109622401.601 8 109622400.605 8                  85420059.379 8  85420055.384 8                      -823.722        -823.722                        -641.872        -641.871                          51.000          51.000                          51.000          50.750
G30  20450141.398    20450141.261                    20450142.180    20450142.399    20450140.019   107466258.741 8 107466254.739 8                  83739948.424 8  83739956.422 8  80250786.590 9      -389.205        -389.205                        -303.279        -303.273        -290.640          52.000          53.000                          53.000          53.000          58.000
R02  22134537.497    22134537.169    22134538.093    22134537.771                   118114165.440 8 118114159.437 8  91866598.707 7  91866563.709 7                      3755.140        3755.140        2920.651        2920.675                          52.500          52.250          46.250          45.000
E09  22450415.912    22450416.203    22450415.174    22450415.125    22450414.975   117977791.457 8  88100310.456 8  95761199.752 8  90398576.480 9  89249436.108 9     -1605.954       -1199.266       -1303.558       -1230.555       -1214.912          51.500          53.750          52.250          55.750          57.500
G08  24834273.600    24834273.329                    24834274.814    24834276.203    24834272.565   130504997.603 6 130504998.631 5                 101692208.419 5 101692207.404 6  97455030.730 7      1269.946        1269.946                         989.592         989.581         948.369          38.500          35.000                          35.000          40.000          46.750
E13  28496842.887    28496845.374    28496845.718    28496844.366    28496844.116   149751990.69414 111827745.09615 121551898.65215 114744993.01515 113286365.69116      1054.795         787.600         856.103         808.190         797.911          27.500          33.500          35.000          34.250          36.750
S25  39890839.472                   209627401.569 7                      -200.147                          44.750
E05  23711735.034    23711735.636    23711732.888    23711734.493    23711734.362   124606019.662 8  93049992.884 9 101141292.111 8  95477381.206 9  94263687.680 9       939.050         701.244         762.215         719.538         710.394          52.250          55.500          52.250          56.500          58.750
S26  40224252.839                   211379922.540 6                        70.272                          38.750
R08  21035992.362    21035992.357    21035992.196    21035992.927                   112646916.777 8 112646829.784 8  87614212.916 8  87614243.914 7                     -3069.857       -3069.857       -2387.669       -2387.668                          52.750          51.250          49.000          47.750
R18  23516394.793    23516394.669    23516395.050    23516395.574                   125532120.989 8 125532104.991 7  97636091.508 7  97636078.503 6                      -580.957        -580.957        -451.860        -451.835                          48.000          47.000          43.250          41.250
E04  28752568.263    28752567.571    28752566.108    28752568.021    28752566.107   151095822.538 4 112831249.127 3 122642669.562 3 115774679.560 4 114302966.943 4     -2741.373       -2046.990       -2225.004       -2100.345       -2073.530          25.000          22.250          22.000          26.500          27.000
C10                  38250330.885                    38250325.476    38250326.167                                                   199179520.850 7                 161849724.745 7 154018274.702 7                                                        19.890                          16.202          15.341                                                          44.500                          46.000          46.500
S23  38593129.015    38593130.312   202808767.788 7 151447596.507 7         3.345           2.524          46.750          47.500
E03  27250813.647    27250814.481    27250812.048    27250812.707    27250812.738   143204016.609 7 106938071.963 7 116237029.342 7 109727754.658 7 108332907.947 8      2621.180        1957.358        2127.563        2008.408        1982.882          47.000          46.750          43.250          46.500          49.500
E25  28318746.576    28318747.996    28318744.749    28318746.202    28318746.374   148816021.612 7 111128850.505 6 120792226.956 6 114027864.428 7 112578360.103 7      3258.635        2433.404        2644.998        2496.874        2465.145          44.500          41.500          40.250          43.000          45.250
C07                  39738819.208                    39738811.678    39738812.900                                                   206930379.122 7                 168147970.294 7 160011782.471 7                                                      -626.785                        -509.351        -484.803                                                          43.750                          42.250          44.000
G07  21891710.375    21891710.459                    21891708.076    21891707.599                   115041756.329 8 115041761.334 8                  89642943.614 8  89642940.613 8                     -2081.546       -2081.546                       -1622.015       -1621.999                          50.250          50.750                          50.750          48.000
C05                  39983119.462                    39983116.126    39983114.374                                                   208202610.275 6                 169181663.242 7 160995439.146 7                                                         -.656                           -.428           -.425                                                          40.750                          42.000          44.000
S28  41262349.516    41262355.114   216835170.975 6 161922330.779 6         0.963           0.781          39.500          39.500
E01  28165073.061    28165073.670    28165072.832    28165072.059    28165071.971   148008583.617 7 110525832.256 7 120136772.530 6 113409115.411 7 111967470.964 7     -2832.708       -2115.359       -2299.302       -2170.557       -2142.947          45.000          44.750          41.500          44.500          47.500
R09  23779064.708    23779065.466    23779065.833    23779065.210    23779052.147   126979153.494 7 126978970.493 7  98761559.069 6  98761431.072 6  95342807.538 7     -4202.065       -4202.065       -3268.234       -3268.221       -3155.075          47.250          45.750          41.250          40.250          44.500
I09  41146548.487   161467939.333 6      -634.567          36.500
I03  41447547.552   162649120.846 6       -44.642          41.750
I02  37475497.087   147061961.172 7       314.853          42.500
I06  38310076.029   150336826.619 7        25.112          42.000
I04  41253032.369   161885809.857 6      -346.923          38.000
C12                                                                                                                                                                                                                                                                                        98.078          93.697                                                                                          33.250          30.750
